stop_id,stop_code,stop_name,stop_desc,stop_lat,stop_lon,zone_id,stop_url,location_type,parent_station,stop_timezone,wheelchair_boarding
260007226,,"Loughborough Endowed Schs",,52.766176738,-1.1994243996,,,,,,
260007307,,"Station Boulevard, stand W",,52.7806585228,-1.199321837,,,,,,
260007312,,"Station Boulevard, stand V",,52.7800846344,-1.198205624,,,,,,
260007334,,"Station Boulevard, stand X",,52.7808119293,-1.1994079771,,,,,,
260007342,,"The Coneries",,52.7738162736,-1.2018339215,,,,,,
260007343,,"The Greyhound",,52.7754744857,-1.1997727126,,,,,,
260007345,,"Morley Street",,52.7769748421,-1.1969730228,,,,,,
260007346,,"The Greyhound",,52.7754459205,-1.1995360527,,,,,,
260007348,,"Loughborough Station, stand R",,52.7791653564,-1.1965324354,,,,,,
260007423,,"Beacon Bingo",,52.7731764627,-1.2029425376,,,,,,
260007451,,"Loughborough Station, stand T",,52.7775365098,-1.1962807527,,,,,,
260007454,,"Loughborough, Baxter Gate BA",,52.772158274,-1.2052734945,,,,,,
260007462,,"Station Boulevard, stand U",,52.7799138507,-1.1982087618,,,,,,
260007487,,"Meadow Lane",,52.7810826889,-1.200900425,,,,,,
3300BR0026,,"Cator Lane Top",,52.9245656928,-1.2336044458,,,,,,
3300BR0028,,"Mottram Road",,52.9245611164,-1.2370852375,,,,,,
3300BR0038,,"Mottram Road",,52.924628631,-1.2363998077,,,,,,
3300BR0052,,"Cator Lane Top",,52.9244274122,-1.2330713946,,,,,,
3300BR0075,,"Cator Lane",,52.9197801154,-1.2275611596,,,,,,
3300BR0079,,"Cator Lane",,52.919710039,-1.226461791,,,,,,
3300BR0080,,"High Road, Nottingham College",,52.9210469304,-1.2233145089,,,,,,
3300BR0081,,"High Road, Nottingham College",,52.9209865372,-1.2237023033,,,,,,
3300BR0095,,"Collin Street",,52.9242319379,-1.2182447426,,,,,,
3300BR0096,,"Ellis Grove",,52.9230735054,-1.2197976593,,,,,,
3300BR0097,,"Wilmot Lane",,52.9223784554,-1.220732344,,,,,,
3300BR0154,,"Bramcote La, Hallams Lane",,52.9188753322,-1.2363968775,,,,,,
3300BR0155,,"Sandby Court",,52.9220884243,-1.2369948226,,,,,,
3300BR0161,,"Oak Acre",,52.9226577538,-1.2501782083,,,,,,
3300BR0163,,"Gt Hogget Drive",,52.9231472451,-1.2465552907,,,,,,
3300BR0175,,"Greenwood Court",,52.9233114553,-1.2314846724,,,,,,
3300BR0197,,"Chilwell, Blandford Rd",,52.9224717279,-1.239293574,,,,,,
3300BR0198,,"Wentworth Road",,52.923024271,-1.2427644789,,,,,,
3300BR0207,,"Valley Road",,52.9200719724,-1.2521117696,,,,,,
3300BR0208,,"Eskdale Drive",,52.918319398,-1.2521717006,,,,,,
3300BR0209,,"Caldbeck Court",,52.9167006914,-1.2492251516,,,,,,
3300BR0210,,"Kirkbride Court",,52.9173085778,-1.2472663658,,,,,,
3300BR0211,,"Field La, Burton Drive",,52.9181160562,-1.2413628125,,,,,,
3300BR0213,,"Jessamine Court",,52.9258731029,-1.2122055657,,,,,,
3300BR0227,,"Field Lane, School Lane",,52.9184393845,-1.2371035624,,,,,,
3300BR0241,,"Resource Centre",,52.9279778627,-1.2083293512,,,,,,
3300BR0254,,"City Road",,52.9272838016,-1.2107518878,,,,,,
3300BR0441,,"Rivergreen Crescent",,52.9447600177,-1.235613925,,,,,,
3300BR0442,,"Deddington Lane",,52.9440456813,-1.2391683119,,,,,,
3300BR0443,,"Eyam Close",,52.945641747,-1.2427566589,,,,,,
3300BR0444,,"Eyam Close",,52.9461247538,-1.2423761717,,,,,,
3300BR0445,,"Rivergreen Crescent",,52.9447042689,-1.2353321542,,,,,,
3300BR0465,,"Hall Drive",,52.9206299978,-1.2366634884,,,,,,
3300BR0467,,"Trowell Road",,52.9557844089,-1.2459883403,,,,,,
3300BR0498,,"Deddington Lane",,52.9441176842,-1.2391819307,,,,,,
3300BR0503,,"Greenwood Court",,52.9233946588,-1.231840186,,,,,,
3300BR0517,,"Bramcote Avenue",,52.9244045713,-1.2379061013,,,,,,
3300BR0521,,"Church Street",,52.9246487871,-1.2160208789,,,,,,
3300BR0523,,"Humber Road",,52.9295875004,-1.2097578973,,,,,,
3300BR0524,,"Salthouse Lane",,52.9318788973,-1.2069192305,,,,,,
3300BR0525,,"Salthouse Lane",,52.9322721039,-1.2065698625,,,,,,
3300BR0526,,"Humber Road",,52.9302599502,-1.2094927482,,,,,,
3300BR0527,,"Marlborough Road",,52.9294074386,-1.2110703092,,,,,,
3300BR0613,,"Beeston Interchange bay 1",,52.9249702621,-1.2143341991,,,,,,
3300BR0616,,"Beeston Interchange bay 4",,52.9258223466,-1.2154046733,,,,,,
3300GE0040,,"Marwood Road",,52.9755413491,-1.1056411998,,,,,,
3300GE0042,,"Carlton Square",,52.9671465765,-1.0869046514,,,,,,
3300GE0043,,"Belper Avenue",,52.9720781333,-1.0970161683,,,,,,
3300GE0044,,"Belper Avenue",,52.9717680143,-1.0964269832,,,,,,
3300GE0045,,"Alpine Crescent",,52.9700675287,-1.0938714742,,,,,,
3300GE0046,,"Alpine Crescent",,52.9700416989,-1.0940209202,,,,,,
3300GE0047,,Cemetery,,52.9689295948,-1.0920042096,,,,,,
3300GE0048,,Cemetery,,52.9687898834,-1.0913668597,,,,,,
3300GE0049,,"Carlton Square",,52.9677579432,-1.0892592514,,,,,,
3300GE0051,,"Carlton Square",,52.9673262236,-1.086885977,,,,,,
3300GE0052,,"Carlton Academy",,52.9741545166,-1.1017383381,,,,,,
3300GE0053,,"Manor Green Walk ",,52.9680209899,-1.0837146794,,,,,,
3300GE0054,,"Manor Green Walk ",,52.9682547135,-1.0825483189,,,,,,
3300GE0055,,"Manor Crescent",,52.9689613477,-1.0797637765,,,,,,
3300GE0056,,"Manor Crescent",,52.9689580056,-1.0793320307,,,,,,
3300GE0057,,"Burton Road, Ousebridge Drive",,52.9701153767,-1.0778779424,,,,,,
3300GE0058,,"Burton Road, Ousebridge Drive",,52.9701484419,-1.0775049727,,,,,,
3300GE0059,,"Burton Close",,52.9710080278,-1.0759082346,,,,,,
3300GE0060,,"Carlton Square",,52.967273817,-1.0882569286,,,,,,
3300GE0062,,"Marwood Road",,52.9754428159,-1.1056879109,,,,,,
3300GE0063,,"Huckerby's Field",,52.9744430383,-1.1030428612,,,,,,
3300GE0069,,"Coningswath Rd Bottom",,52.973179021,-1.098750444,,,,,,
3300GE0071,,"Coningswath Rd Bottom",,52.9735503534,-1.0991150156,,,,,,
3300GE0078,,"Huckerby's Field",,52.9743625947,-1.1031040947,,,,,,
3300GE0079,,"Burton Close",,52.9709434915,-1.0757011379,,,,,,
3300GE0092,,"Fraser Road",,52.9761128659,-1.1123311003,,,,,,
3300GE0105,,"Florence Road",,52.9720307959,-1.0710318612,,,,,,
3300GE0110,,"Chesterfield Street",,52.9663367602,-1.0950363914,,,,,,
3300GE0111,,"Chesterfield Street",,52.9664464636,-1.0940960716,,,,,,
3300GE0112,,"Southcliffe Road",,52.9662536462,-1.0923878333,,,,,,
3300GE0113,,"Carlton, Tesco",,52.966308035,-1.0912699962,,,,,,
3300GE0114,,Tesco,,52.9661808364,-1.0910939918,,,,,,
3300GE0122,,"Burton Avenue",,52.9717047317,-1.1094878432,,,,,,
3300GE0123,,"Hillview Road",,52.9729741161,-1.1157608945,,,,,,
3300GE0124,,"Prospect Road",,52.9724472492,-1.1114084664,,,,,,
3300GE0125,,"Foxhill Road West",,52.9719392397,-1.110793452,,,,,,
3300GE0128,,"Ernest Road",,52.9743494685,-1.1097313321,,,,,,
3300GE0132,,"Fraser Rd, Marshall Hill Dr",,52.9765460806,-1.113766827,,,,,,
3300GE0135,,"Arnold Lane, Wykes Avenue",,52.9777980708,-1.0820930549,,,,,,
3300GE0136,,"Arnold Lane, Wykes Avenue",,52.9782100001,-1.0830523991,,,,,,
3300GE0145,,"Fraser Road",,52.975300648,-1.1095032954,,,,,,
3300GE0154,,"Knight Street",,52.9631513765,-1.0794106981,,,,,,
3300GE0155,,"Knight Street",,52.9628787373,-1.0801906717,,,,,,
3300GE0161,,"Marshall Road",,52.9759910835,-1.1177098284,,,,,,
3300GE0169,,"Lees Road",,52.9767676575,-1.1193918026,,,,,,
3300GE0176,,"Fraser Road",,52.9729028342,-1.1074230785,,,,,,
3300GE0178,,"Valley Rd, Foxhill Rd Central",,52.9712523414,-1.1055063537,,,,,,
3300GE0183,,"Florence Road",,52.9724696968,-1.0708288632,,,,,,
3300GE0188,,"Arnold La Cemetery",,52.9806127509,-1.0868889373,,,,,,
3300GE0190,,"Bakewell Avenue",,52.9750030288,-1.0903728198,,,,,,
3300GE0191,,"Westdale La E, Ramsdale Rd",,52.9738866383,-1.0878050621,,,,,,
3300GE0192,,"Westdale La E, Ramsdale Rd",,52.9737742113,-1.0872117536,,,,,,
3300GE0193,,"Victoria Street",,52.97239806,-1.0836072374,,,,,,
3300GE0194,,"Westdale La, Digby Av",,52.979611511,-1.1005975177,,,,,,
3300GE0195,,"Lascelles Avenue",,52.9785386433,-1.0966283307,,,,,,
3300GE0196,,"Hartington Avenue",,52.9766514775,-1.0931678562,,,,,,
3300GE0197,,"Hartington Avenue",,52.9765041473,-1.0927092626,,,,,,
3300GE0201,,"Westdale La, Digby Av",,52.9795600597,-1.1009262507,,,,,,
3300GE0202,,"Victoria Street",,52.9723754927,-1.0830120584,,,,,,
3300GE0203,,"Redland Grove",,52.9691846453,-1.0819032399,,,,,,
3300GE0204,,"Redland Grove",,52.9692845484,-1.0820351366,,,,,,
3300GE0205,,"Main Rd, Westdale La",,52.9715323666,-1.0820917593,,,,,,
3300GE0206,,"Westdale Lane",,52.9725514855,-1.0813553814,,,,,,
3300GE0207,,"Tennyson Avenue",,52.9739873874,-1.0810419922,,,,,,
3300GE0208,,"Tennyson Avenue",,52.9739773637,-1.0809081772,,,,,,
3300GE0209,,"Church View",,52.9753487357,-1.0803876376,,,,,,
3300GE0210,,"Church View",,52.9754088878,-1.0800289421,,,,,,
3300GE0211,,"Vale Rd, New Vale Road",,52.9558477149,-1.0917274099,,,,,,
3300GE0212,,"Bakewell Avenue",,52.9752110071,-1.0905322697,,,,,,
3300GE0214,,"St John School",,52.9577055018,-1.0889791752,,,,,,
3300GE0215,,"St John School",,52.9579902689,-1.0886010301,,,,,,
3300GE0216,,"Verona Avenue",,52.9594996793,-1.0849815378,,,,,,
3300GE0217,,"Verona Avenue",,52.9595948816,-1.0845031441,,,,,,
3300GE0218,,"Chaworth Road",,52.9602895875,-1.0813323763,,,,,,
3300GE0219,,"Private Road No. 8",,52.9590539656,-1.0808077463,,,,,,
3300GE0220,,"Burton Joyce, Wheatsheaf Ct",,52.9881971257,-1.0364074039,,,,,,
3300GE0221,,"Lambley Lane",,52.9862383818,-1.0398622192,,,,,,
3300GE0222,,"Lambley Lane",,52.9865060953,-1.0396179432,,,,,,
3300GE0226,,"Besecar Avenue",,52.981849519,-1.0887395945,,,,,,
3300GE0227,,"Burton Road, Linden Grove",,52.9751539838,-1.0657823541,,,,,,
3300GE0228,,"Burton Road, Linden Grove",,52.975560644,-1.0649098197,,,,,,
3300GE0229,,"Carlton-le-Willows School, Turnround",,52.9760209913,-1.0640063237,,,,,,
3300GE0233,,"Nottingham Road ",,52.9786856182,-1.0576487624,,,,,,
3300GE0234,,"Nottingham Road",,52.9788958995,-1.0569590792,,,,,,
3300GE0235,,"Woodside Road",,52.9815309663,-1.051450296,,,,,,
3300GE0236,,"Woodside Road",,52.9815450213,-1.0509584666,,,,,,
3300GE0237,,"Cragmoor Road",,52.9834099711,-1.0447360809,,,,,,
3300GE0240,,"Arnold La Cemetery",,52.9801738882,-1.0859300721,,,,,,
3300GE0246,,"Hooton Road",,52.9664499077,-1.1040420857,,,,,,
3300GE0247,,"Buntings Lane",,52.9664004808,-1.102256388,,,,,,
3300GE0248,,"Buntings Lane",,52.9662993632,-1.1019606964,,,,,,
3300GE0249,,"Forester Grove",,52.9664247084,-1.0995162476,,,,,,
3300GE0250,,"29 Main Street",,53.024064342,-1.0678870059,,,,,,
3300GE0252,,"Park Avenue",,53.0236243697,-1.0656601272,,,,,,
3300GE0264,,"Forester Grove",,52.9663129041,-1.0989974448,,,,,,
3300GE0265,,"Hooton Road",,52.9662275367,-1.1055504984,,,,,,
3300GE0272,,"Newton Road",,52.9840450213,-1.0925364221,,,,,,
3300GE0273,,"Brentcliffe Avenue",,52.9651896272,-1.1146094817,,,,,,
3300GE0274,,"Carlton Hill, Standhill Rd",,52.9656724237,-1.1118451423,,,,,,
3300GE0275,,"Carlton Hill, Standhill Rd",,52.9659040856,-1.1103663696,,,,,,
3300GE0276,,"25 Main Street",,53.0241683463,-1.0685407718,,,,,,
3300GE0277,,"Second Avenue",,52.966196021,-1.1073378594,,,,,,
3300GE0278,,"Lascelles Avenue",,52.9787589936,-1.097234373,,,,,,
3300GE0281,,"Woodboro', St Swithun's Church",,53.0230637477,-1.0606777628,,,,,,
3300GE0282,,"69 Green Lane",,53.0078453621,-1.0619172317,,,,,,
3300GE0283,,"43 Green Lane",,53.0058422246,-1.0621096791,,,,,,
3300GE0284,,"42 Green Lane",,53.0056172908,-1.0620847477,,,,,,
3300GE0285,,"Lambley, The Dumbles",,53.0033147301,-1.0619260131,,,,,,
3300GE0286,,"Holy Trinity Church",,53.0027550584,-1.0604926596,,,,,,
3300GE0287,,"Holy Trinity Church",,53.0025896262,-1.0600342937,,,,,,
3300GE0289,,"Park Avenue",,53.0237717774,-1.0649711233,,,,,,
3300GE0290,,"Second Avenue",,52.9660290454,-1.1078475309,,,,,,
3300GE0291,,"Greenwood Rd, Douglas Av",,52.9592522708,-1.091403009,,,,,,
3300GE0293,,"Colwick Manor Farm",,52.9542849738,-1.0872201632,,,,,,
3300GE0295,,"Trentdale Road",,52.9603908297,-1.0980784199,,,,,,
3300GE0307,,"Chesterfield Drive",,52.9909553267,-1.0328897269,,,,,,
3300GE0313,,"Iona Gardens",,53.0107800103,-1.1662751628,,,,,,
3300GE0317,,"Burton Joyce, Wheatsheaf Ct",,52.9883573391,-1.0362101787,,,,,,
3300GE0318,,"Chesterfield Drive",,52.9901685088,-1.0334138168,,,,,,
3300GE0319,,"Poplars Avenue",,52.9930659279,-1.0293414195,,,,,,
3300GE0320,,Hillarys,,52.9554177981,-1.082566902,,,,,,
3300GE0321,,"Netherfield, Victoria Road",,52.9643127897,-1.0784778251,,,,,,
3300GE0324,,"Netherfield, Victoria Road",,52.9639722819,-1.0786190608,,,,,,
3300GE0325,,"Chaworth Road",,52.9601990168,-1.0812449722,,,,,,
3300GE0326,,"Private Rd no. 2, Private Rd no. 1",,52.9567094667,-1.0787138628,,,,,,
3300GE0327,,Hillarys,,52.9548519721,-1.0837994752,,,,,,
3300GE0334,,"Colwick Manor Farm",,52.9541957784,-1.0873113517,,,,,,
3300GE0335,,"Oakdale Rd, Avondale Rd",,52.9617555853,-1.0943132031,,,,,,
3300GE0336,,"Private Rd no. 2",,52.9575639097,-1.0787701385,,,,,,
3300GE0341,,"Arnold, Front Street stand 2",,53.0041187346,-1.1274042638,,,,,,
3300GE0342,,"Arnold, Front Street stand 5",,53.0052764521,-1.127142481,,,,,,
3300GE0343,,"Arnold, Front Street stand 6",,53.0056713823,-1.1270600024,,,,,,
3300GE0344,,"Arnold, Front Street stand 7",,53.0058419378,-1.1270267568,,,,,,
3300GE0346,,"Arnold, High Street, ASDA",,53.0055663356,-1.128671621,,,,,,
3300GE0347,,"High Street Avenue",,53.0027850373,-1.1294130914,,,,,,
3300GE0348,,"Charles Street",,53.0007312757,-1.1313021321,,,,,,
3300GE0349,,"Nottingham Rd, Sainsbury's",,52.9994495937,-1.133056328,,,,,,
3300GE0350,,"Portland Street",,52.9974152648,-1.1351532591,,,,,,
3300GE0351,,"Daybrook Square",,52.9956903834,-1.1377802027,,,,,,
3300GE0352,,"Brackendale Avenue",,53.0070038094,-1.1273311935,,,,,,
3300GE0353,,"Mellors Road",,53.0080715357,-1.1270563019,,,,,,
3300GE0354,,"St Mary's Close",,53.0101940606,-1.1247480218,,,,,,
3300GE0355,,"Albion Rise",,53.011240797,-1.1216266651,,,,,,
3300GE0356,,"Patricia Drive",,53.0129021043,-1.1177473707,,,,,,
3300GE0357,,"Surgeys Lane",,53.0144294422,-1.1164194195,,,,,,
3300GE0358,,"Karen Rise",,53.0116108598,-1.1157615397,,,,,,
3300GE0359,,"Walton Road",,53.0090386659,-1.1180198865,,,,,,
3300GE0360,,"Ashdale Road",,53.0068690293,-1.1163800354,,,,,,
3300GE0361,,"Cedar Grove",,53.006637907,-1.1131060588,,,,,,
3300GE0362,,Spinningdale,,53.0089672188,-1.1108376323,,,,,,
3300GE0363,,"Killisick, Gleneagles Dr",,53.0100424442,-1.1103684097,,,,,,
3300GE0364,,"Canonbie Close",,53.0092811496,-1.1083422014,,,,,,
3300GE0365,,"Daybrook Square",,52.996683963,-1.1371942274,,,,,,
3300GE0366,,"Portland Street",,52.9979962435,-1.1346946486,,,,,,
3300GE0367,,"Nottingham Rd, Sainsbury's",,52.9994510052,-1.1332500084,,,,,,
3300GE0368,,"Arnold, Croft Rd",,53.0039211827,-1.128660032,,,,,,
3300GE0369,,Spinningdale,,53.0089570053,-1.1106738986,,,,,,
3300GE0370,,"Cedar Grove",,53.0067498618,-1.1124480238,,,,,,
3300GE0371,,"Oakdale Road",,53.0063943459,-1.1141989745,,,,,,
3300GE0372,,"Ashdale Road",,53.0069174001,-1.1168410488,,,,,,
3300GE0373,,"Walton Road",,53.009483428,-1.1173848482,,,,,,
3300GE0374,,"Karen Rise",,53.0120406256,-1.1155291823,,,,,,
3300GE0375,,"Surgeys Lane",,53.0144084766,-1.1160173901,,,,,,
3300GE0376,,"Patricia Drive",,53.0125269256,-1.1180680291,,,,,,
3300GE0377,,"Albion Rise",,53.0105769154,-1.12302626,,,,,,
3300GE0378,,"St Mary's Close",,53.0095065802,-1.1253879,,,,,,
3300GE0379,,"Mellors Road",,53.0075060503,-1.127172032,,,,,,
3300GE0380,,"Church St, Brackendale Ave",,53.006750721,-1.1271425552,,,,,,
3300GE0381,,"Cornell Drive",,53.006027694,-1.1084390353,,,,,,
3300GE0382,,"Coppice Road",,53.0047604675,-1.1108793466,,,,,,
3300GE0383,,"Rolleston Dr, Kiddier Ave",,53.0030049513,-1.1141491215,,,,,,
3300GE0384,,"Rolleston Drive Shops",,53.0015864676,-1.1168157011,,,,,,
3300GE0385,,"Gedling Rd, Rolleston Dr",,52.9995451897,-1.1215808716,,,,,,
3300GE0386,,"Arnold View School",,53.000947049,-1.1239515174,,,,,,
3300GE0387,,"Friar Tuck",,53.0021620805,-1.1265943154,,,,,,
3300GE0388,,"Arnold Market",,53.0016634182,-1.1284670559,,,,,,
3300GE0389,,"Arnold Market",,53.0015759382,-1.128796648,,,,,,
3300GE0390,,"Friar Tuck",,53.0021452106,-1.1255217406,,,,,,
3300GE0391,,"Arnold View School",,53.0009183288,-1.1237136797,,,,,,
3300GE0392,,"Rolleston Drive",,52.9998050331,-1.1202494279,,,,,,
3300GE0393,,"Rolleston Drive Shops",,53.0019522132,-1.1164357002,,,,,,
3300GE0394,,"Kiddier Avenue",,53.0032995605,-1.113874856,,,,,,
3300GE0395,,"Coppice Road",,53.0050633885,-1.110515461,,,,,,
3300GE0396,,"Cornell Drive",,53.0063928534,-1.1079844207,,,,,,
3300GE0397,,"Berriedale Close",,53.0077891007,-1.1059734683,,,,,,
3300GE0398,,"Canonbie Close",,53.0086158558,-1.1071337932,,,,,,
3300GE0399,,"Gedling Road Shops",,52.9943480831,-1.1129406398,,,,,,
3300GE0400,,"Flowers Close",,52.9954774808,-1.1137071653,,,,,,
3300GE0401,,"Banks Close",,52.9951987074,-1.1112842982,,,,,,
3300GE0402,,"Trueman Gardens",,52.9967144868,-1.1084222324,,,,,,
3300GE0403,,"Hunter Road",,52.9977950439,-1.1062692623,,,,,,
3300GE0404,,"Ramsey Dr, Newcombe Dr",,52.9998336806,-1.1048115968,,,,,,
3300GE0405,,"Edison Way",,53.0019237494,-1.1042170171,,,,,,
3300GE0406,,"Mapperley Orchard",,53.0030577219,-1.1079786419,,,,,,
3300GE0407,,"Hinsley Close",,53.0039129151,-1.1105391032,,,,,,
3300GE0408,,"Beechwood Road",,53.0059645524,-1.116845589,,,,,,
3300GE0409,,"Catton Road",,53.0063729591,-1.118580914,,,,,,
3300GE0410,,"Runswick Drive",,53.0058313568,-1.1207081523,,,,,,
3300GE0411,,"Leivers Avenue",,53.0041437422,-1.1234695552,,,,,,
3300GE0413,,"Galway Road",,53.0054033345,-1.1346657945,,,,,,
3300GE0414,,"Leivers Avenue",,53.0043216375,-1.1232126127,,,,,,
3300GE0415,,"Runswick Drive",,53.0062523653,-1.1205058598,,,,,,
3300GE0416,,"Catton Road",,53.0063605474,-1.1181191719,,,,,,
3300GE0417,,"Beechwood Road",,53.0056841702,-1.1154057356,,,,,,
3300GE0418,,"Hinsley Close",,53.0040759259,-1.1106996786,,,,,,
3300GE0419,,"Mapperley Orchard",,53.0033038626,-1.1084355321,,,,,,
3300GE0420,,"Edison Way",,53.0024923326,-1.1057103268,,,,,,
3300GE0421,,"Ramsey Dr, Newcombe Dr",,52.9990422821,-1.1047683592,,,,,,
3300GE0422,,"Hunter Road",,52.9975541567,-1.1065126357,,,,,,
3300GE0423,,"Trueman Gardens",,52.9964109018,-1.1086966776,,,,,,
3300GE0424,,"Banks Close",,52.9951327847,-1.1108833729,,,,,,
3300GE0425,,"Gedling Road Shops",,52.994774411,-1.1134533733,,,,,,
3300GE0426,,"High Street Avenue",,53.0023205985,-1.1298247769,,,,,,
3300GE0427,,"Cross Street",,53.0046338831,-1.1388836674,,,,,,
3300GE0428,,"Redhill Cemetery",,53.0069726637,-1.1378535203,,,,,,
3300GE0429,,"Redhill Lodge Drive",,53.009887872,-1.1357386565,,,,,,
3300GE0430,,"Mansfield Road",,53.0114601195,-1.1331436297,,,,,,
3300GE0431,,"Lodge Farm Lane",,53.0108888323,-1.1312323796,,,,,,
3300GE0432,,"Mellors Rd, Churchmoor La",,53.0095448642,-1.1293814379,,,,,,
3300GE0433,,"Redhill Rd, Churchmoor La",,53.0097469637,-1.1299735407,,,,,,
3300GE0434,,"Mansfield Road",,53.0114538456,-1.1335163754,,,,,,
3300GE0435,,"Redhill Lodge Drive",,53.0092683408,-1.1358404533,,,,,,
3300GE0436,,"Redhill Cemetery",,53.0073734567,-1.1373388212,,,,,,
3300GE0437,,"Newcombe Drive",,52.9993875281,-1.1052529421,,,,,,
3300GE0438,,"Newcombe Dr, Darlton Dr",,53.0004860161,-1.1078826247,,,,,,
3300GE0439,,"Berriedale Close",,53.0077694445,-1.105750321,,,,,,
3300GE0440,,"Davidson Drive",,52.9998029653,-1.1067046356,,,,,,
3300GE0446,,"Furlong Avenue",,53.0044833816,-1.1379627132,,,,,,
3300GE0447,,"Galway Road",,53.0056859664,-1.1339746146,,,,,,
3300GE0448,,"James Street",,53.0064596489,-1.1315895441,,,,,,
3300GE0449,,"Furlong Avenue",,53.0041440995,-1.138282418,,,,,,
3300GE0452,,"Saville Road",,52.9945275634,-1.1299367022,,,,,,
3300GE0453,,"Conway Gardens",,52.9964468292,-1.130553718,,,,,,
3300GE0454,,"Carmel Gardens",,52.999085745,-1.1300090033,,,,,,
3300GE0455,,"Carmel Gardens",,52.9989771247,-1.1299068825,,,,,,
3300GE0456,,"Conway Gardens",,52.99582545,-1.1304023022,,,,,,
3300GE0459,,"Lynton Gardens",,53.0052066987,-1.1140593513,,,,,,
3300GE0462,,"Arnold, Front Street stand 3",,53.004298169,-1.1273559394,,,,,,
3300GE0463,,"Homefield Avenue",,53.0134986969,-1.11456033,,,,,,
3300GE0477,,"Oxclose Lane, Mansfield Rd",,53.0027438014,-1.141052224,,,,,,
3300GE0478,,"Queens Bower Road",,53.0013072707,-1.1437927637,,,,,,
3300GE0479,,"Byron Street",,53.0001408578,-1.1453506249,,,,,,
3300GE0480,,"Burford School",,52.9981635485,-1.1479077937,,,,,,
3300GE0481,,"Oxclose Police Station",,52.9965935681,-1.1521254971,,,,,,
3300GE0482,,"Oxclose Police Station",,52.9968179541,-1.1520764037,,,,,,
3300GE0483,,"Burford School",,52.998113567,-1.1484600843,,,,,,
3300GE0484,,"Florimel Court",,53.0008240652,-1.1453520379,,,,,,
3300GE0485,,"Queens Bower Road",,53.0022148324,-1.1424932746,,,,,,
3300GE0486,,"Oxclose Lane, Mansfield Rd",,53.0033582786,-1.1402502245,,,,,,
3300GE0487,,"Bestwood Lodge Drive",,53.0039241238,-1.145171612,,,,,,
3300GE0491,,"Roundwood Road",,53.0024125995,-1.1437410976,,,,,,
3300GE0492,,"Roundwood Road",,53.0028984961,-1.1438059952,,,,,,
3300GE0498,,"Manor Road",,52.9676676365,-1.0810270982,,,,,,
3300GE0499,,"Elm Drive",,52.9667937291,-1.0796162365,,,,,,
3300GE0501,,"Marshall Hill Drive",,52.9757100684,-1.114975328,,,,,,
3300GE0502,,"Hickling Road",,52.9777148724,-1.1210554819,,,,,,
3300GE0517,,"Private Rd no. 2, Private Rd no. 1",,52.9566678702,-1.079146441,,,,,,
3300GE0518,,"Kent Road",,52.9838927023,-1.1140633841,,,,,,
3300GE0519,,"Kenrick Road",,52.983116922,-1.1112938734,,,,,,
3300GE0520,,"Fernleigh Avenue",,52.9818390245,-1.1075070649,,,,,,
3300GE0521,,"Elmhurst Avenue",,52.9807481725,-1.1046996297,,,,,,
3300GE0522,,"Elmhurst Avenue",,52.9802376602,-1.1037569588,,,,,,
3300GE0523,,"Fernleigh Avenue",,52.9822080418,-1.1087655165,,,,,,
3300GE0524,,"Kenrick Road",,52.9832307863,-1.1120958731,,,,,,
3300GE0525,,"Kent Road",,52.9841078555,-1.1151910343,,,,,,
3300GE0526,,"Holyoake Road",,52.9812199433,-1.1040792082,,,,,,
3300GE0527,,"Keyworth Road",,52.9831951328,-1.0989889152,,,,,,
3300GE0528,,"Gedling, Wollaton Ave",,52.981592625,-1.0939432019,,,,,,
3300GE0529,,"County Road",,52.9820160686,-1.0976133375,,,,,,
3300GE0530,,"Holyoake Road",,52.9809817509,-1.104679908,,,,,,
3300GE0531,,"Turpin Avenue",,52.9830609696,-1.0943444458,,,,,,
3300GE0532,,"Gedling, Wollaton Ave Shops",,52.9814090049,-1.0934406295,,,,,,
3300GE0533,,"Gedling School",,52.9806433282,-1.0908799495,,,,,,
3300GE0534,,"Cinderhill Grove",,52.9804742324,-1.08875363,,,,,,
3300GE0549,,"Porchester Rd, Morley Rd",,52.9716922235,-1.1198821125,,,,,,
3300GE0550,,"Mapperley Shops",,52.9844596051,-1.1214101771,,,,,,
3300GE0551,,"Mapperley Shops",,52.9844212316,-1.1210832543,,,,,,
3300GE0552,,"Robinson Road",,52.9829017373,-1.1234823873,,,,,,
3300GE0553,,"Mapperley, Steedman Avenue",,52.9861288751,-1.118605643,,,,,,
3300GE0554,,"Newbury Close",,52.9878439038,-1.1159191307,,,,,,
3300GE0555,,"Newbury Close",,52.9876109879,-1.1160281614,,,,,,
3300GE0556,,"Mapperley, Steedman Avenue",,52.986437275,-1.1177651798,,,,,,
3300GE0557,,"Moore Road",,52.976846569,-1.1227708871,,,,,,
3300GE0558,,"Lees Road Top",,52.9755263864,-1.1217253592,,,,,,
3300GE0559,,"Porchester Rd, Longbeck Ave",,52.9736280901,-1.1203044393,,,,,,
3300GE0561,,"Podder Lane",,52.9956716562,-1.1036312024,,,,,,
3300GE0562,,"Coppice Road",,53.0004479073,-1.1016249734,,,,,,
3300GE0563,,"Podder Lane",,52.9958138933,-1.1034196655,,,,,,
3300GE0564,,"Chartwell Grove",,52.9943120897,-1.1045383848,,,,,,
3300GE0565,,"Chartwell Grove",,52.9943013069,-1.104300225,,,,,,
3300GE0566,,"Mapperley Plains, Spring La",,52.999588541,-1.1021047303,,,,,,
3300GE0567,,"Mapperley Plains, Spring La",,52.9979383354,-1.1026157612,,,,,,
3300GE0568,,"Arnold Lane",,52.9915997588,-1.1096597902,,,,,,
3300GE0569,,"Arnold Lane",,52.991331008,-1.109784499,,,,,,
3300GE0570,,"Plains Road, Fitness Centre",,52.9894611118,-1.1133833796,,,,,,
3300GE0571,,"Plains Road, Fitness Centre",,52.9900885986,-1.1119403763,,,,,,
3300GE0573,,Morrisons,,52.9606076423,-1.0667657872,,,,,,
3300GE0575,,"Victoria Pk, Morrisons",,52.9605016551,-1.0670062663,,,,,,
3300GE0583,,"Foster Drive",,52.989405213,-1.1400505372,,,,,,
3300GE0584,,"Woodthorpe Drive",,52.9869723729,-1.141752338,,,,,,
3300GE0585,,"Muirfield Road",,53.0124224948,-1.1595213165,,,,,,
3300GE0586,,"Stockdale Close",,53.0145259403,-1.1620591667,,,,,,
3300GE0587,,"Ruthwell Gardens",,53.0135751276,-1.1649096243,,,,,,
3300GE0588,,"Bewcastle Rd, Tithe Gdns",,53.0126038801,-1.1648538424,,,,,,
3300GE0589,,"Bewcastle Rd, Tithe Gdns",,53.0123978841,-1.1649621538,,,,,,
3300GE0590,,"Ruthwell Gardens",,53.0139247253,-1.1647687266,,,,,,
3300GE0591,,"Stockdale Close",,53.0146482046,-1.1615499994,,,,,,
3300GE0592,,"Muirfield Road",,53.0132654879,-1.1592366454,,,,,,
3300GE0593,,"Emmanuel Avenue",,53.0122131339,-1.1591527571,,,,,,
3300GE0594,,"Breck Hill Top",,52.9842071959,-1.1225324541,,,,,,
3300GE0595,,"Coronation Road",,52.9856415908,-1.1244398655,,,,,,
3300GE0596,,"Maitland Road",,52.9874940033,-1.1269646257,,,,,,
3300GE0597,,"Littlegreen Road",,52.9885868873,-1.128894093,,,,,,
3300GE0598,,"The Crescent",,52.9901083846,-1.1316642095,,,,,,
3300GE0599,,"Calstock Road",,52.9922601808,-1.134585801,,,,,,
3300GE0600,,"Thackeray's La, Knighton Rd",,52.9931297311,-1.1379652773,,,,,,
3300GE0601,,"Thackeray's La, Knighton Rd",,52.9931913525,-1.1377852685,,,,,,
3300GE0602,,"Calstock Road",,52.9925354589,-1.1353550102,,,,,,
3300GE0603,,"Raibank Gardens",,52.9916119343,-1.1332132451,,,,,,
3300GE0604,,"The Crescent",,52.989851821,-1.1309989725,,,,,,
3300GE0605,,"Littlegreen Road",,52.9885488616,-1.1286118164,,,,,,
3300GE0606,,"Maitland Road",,52.9875194369,-1.1267555611,,,,,,
3300GE0607,,"Breck Hill Top",,52.9841881207,-1.1223838863,,,,,,
3300GE0608,,"Mansfield Rd, The Vale",,52.9929859948,-1.1392196071,,,,,,
3300GE0610,,"Somersby Rd, Nordean Rd",,52.9912520499,-1.1197080987,,,,,,
3300GE0611,,"Weaverthorpe Road",,52.992589625,-1.1194574326,,,,,,
3300GE0612,,"Walsingham Road",,52.9930425945,-1.1138761911,,,,,,
3300GE0613,,"Walsingham Road",,52.9930407075,-1.1136229556,,,,,,
3300GE0614,,"Weaverthorpe Road",,52.992917662,-1.1188399263,,,,,,
3300GE0615,,"Somersby Rd, Melbury Rd",,52.990347503,-1.1189518134,,,,,,
3300GE0617,,"Raibank Gardens",,52.9918464945,-1.1333277345,,,,,,
3300GE0618,,"Thackerays Lane",,52.9922772458,-1.1319931739,,,,,,
3300GE0619,,"Saville Road",,52.9931215598,-1.1269852551,,,,,,
3300GE0620,,"Somersby Road",,52.9934638954,-1.1246392711,,,,,,
3300GE0621,,"Littlegreen Road",,52.9921751566,-1.1217601795,,,,,,
3300GE0622,,"Littlegreen Road",,52.9927767267,-1.1228802555,,,,,,
3300GE0623,,"Saville Road",,52.9927712124,-1.1282437817,,,,,,
3300GE0624,,"Thackerays Lane",,52.9921617044,-1.1321742678,,,,,,
3300GE0625,,"Somersby Rd, Nordean Rd",,52.9913858166,-1.1207780285,,,,,,
3300GE0626,,"Worcester Road",,52.9926117637,-1.1322546381,,,,,,
3300GE0627,,"Saville Road",,52.9935847898,-1.1300897337,,,,,,
3300GE0628,,"Worcester Road",,52.9924255118,-1.1326010301,,,,,,
3300GE0629,,"Vale Rd, New Vale Rd",,52.9553823656,-1.0931810565,,,,,,
3300GE0636,,"The Good Shepherd School",,52.9937512665,-1.1221602752,,,,,,
3300GE0637,,"The Good Shepherd School",,52.993963242,-1.1216494189,,,,,,
3300GE0638,,"St. Helens Grove",,52.9839701109,-1.0428469022,,,,,,
3300GE0663,,"Mays Avenue",,52.9576483629,-1.0944436606,,,,,,
3300GE0664,,"Arnold, Front Street stand 1",,53.0039304214,-1.127467669,,,,,,
3300GE0665,,"James Street",,53.0062208846,-1.1321308427,,,,,,
3300GE0667,,"Spring Lane Top",,52.9982478577,-1.1019388326,,,,,,
3300GE0668,,"Cheddington Avenue",,52.9967978713,-1.0980204657,,,,,,
3300GE0669,,"Bradstone Drive",,52.995346639,-1.0927763483,,,,,,
3300GE0670,,"Gedling Country Park",,52.9944001679,-1.0842292684,,,,,,
3300GE0671,,"Sunrise Farm",,52.9952380796,-1.0694165635,,,,,,
3300GE0672,,"Spring Lane End",,52.9991604521,-1.0663521224,,,,,,
3300GE0673,,"Lambley, Catfoot Lane",,53.0005992071,-1.0652631109,,,,,,
3300GE0674,,"Ross Lane",,53.0012381362,-1.0596464028,,,,,,
3300GE0675,,"Lambley, The Dumbles",,53.0034733983,-1.0626676809,,,,,,
3300GE0676,,"Woodboro', Lingwood La, Church",,53.0228356358,-1.0602503613,,,,,,
3300GE0677,,"Ross Lane",,53.0009093502,-1.0601303851,,,,,,
3300GE0678,,"Lambley, Catfoot Lane",,53.0003608627,-1.0658195965,,,,,,
3300GE0679,,"Cromwell Crescent",,52.9979733153,-1.0651410051,,,,,,
3300GE0680,,"Sunrise Farm",,52.9947298426,-1.0699489558,,,,,,
3300GE0681,,"Lambley Lane",,52.9932457894,-1.0733032196,,,,,,
3300GE0682,,"Cheddington Avenue",,52.9965052809,-1.0973709749,,,,,,
3300GE0683,,"Gedling Country Park",,52.9942996937,-1.0840228082,,,,,,
3300GE0684,,"Spring Lane Cattery",,52.9938527785,-1.0808588193,,,,,,
3300GE0685,,"Spring Lane End",,52.9989418166,-1.0659843236,,,,,,
3300GE0695,,"Chapel Lane",,53.0006587587,-1.0625498141,,,,,,
3300GE0696,,"Chapel Lane",,53.0005785715,-1.0626409575,,,,,,
3300GE0720,,"Poplars Avenue",,52.9929845507,-1.0292836495,,,,,,
3300GE0750,,"66 Green Lane",,53.0077812712,-1.0617695848,,,,,,
3300GE0751,,"Cromwell Crescent",,52.9979562761,-1.0652605749,,,,,,
3300GE0752,,"Lambley Lane",,52.993398297,-1.0744173542,,,,,,
3300GE0758,,"Carlton, Elmhurst Avenue",,52.9775023989,-1.1070155675,,,,,,
3300GE0770,,"Arnold, Beechwood Road",,53.0061344608,-1.1155157563,,,,,,
3300GE0774,,"Private Road No. 2",,52.9575107886,-1.0788754713,,,,,,
3300GE0778,,"Spring Lane Cattery",,52.9939146585,-1.0807234164,,,,,,
3300GE0787,,"Beaumaris Drive",,52.9744424303,-1.0678974867,,,,,,
3300GE0800,,"Mansfield Rd, The Vale",,52.9940267882,-1.1389456376,,,,,,
3300GE0802,,"Porchester Rd, Morley Rd",,52.9707855226,-1.1200494348,,,,,,
3300GE0823,,"Bradstone Drive",,52.9952751891,-1.0928374425,,,,,,
3300GE0831,,"Lingwood Lane",,53.0148179603,-1.0672216697,,,,,,
3300GE0832,,"Lingwood Lane",,53.0148076868,-1.0670579249,,,,,,
3300GE0844,,"Travellers Rest",,53.0101379038,-1.1003507061,,,,,,
3300GE0845,,"Travellers Rest",,53.0101549782,-1.1002311161,,,,,,
3300GE0846,,"Woodborough Hall",,53.0236619689,-1.070460039,,,,,,
3300GE0847,,"Woodborough Hall",,53.023663017,-1.0705941982,,,,,,
3300GE0848,,"Bank Hill Farm",,53.0219019336,-1.071854533,,,,,,
3300GE0849,,"Bank Hill Farm",,53.0219741861,-1.0718977082,,,,,,
3300GE0850,,Podders,,53.0162453817,-1.0937244816,,,,,,
3300GE0851,,Podders,,53.0162826961,-1.0939025781,,,,,,
3300GE0852,,"Private Road No. 3",,52.9584278821,-1.0765783343,,,,,,
3300GE0853,,"Private Road No. 3",,52.9582544496,-1.0762396373,,,,,,
3300NS0040,,"NTU Brackenhurst Campus",,53.063964814,-0.9651911373,,,,,,
3300NS0113,,"NTU Brackenhurst Campus",,53.0644596508,-0.9652389733,,,,,,
3300NS0131,,"Park Terrace",,53.0747969643,-0.9579606507,,,,,,
3300NS0155,,"Landseer Road ",,53.0752252271,-0.9648018159,,,,,,
3300NS0162,,"Lowes Wong",,53.0763155683,-0.9568641467,,,,,,
3300NS0175,,Easthorpe,,53.0773599093,-0.9427769451,,,,,,
3300NS0186,,"The Ropewalk",,53.0828324974,-0.9527204139,,,,,,
3300NS0187,,"The Ropewalk",,53.0831033735,-0.9538783616,,,,,,
3300NS0188,,"Norwood Gardens Turning Circle",,53.0847826606,-0.9577792618,,,,,,
3300NS0201,,"Chimes Meadow",,53.0780422976,-0.9426855912,,,,,,
3300NS0254,,"Holy Trinity Church",,52.9963707786,-1.0223538529,,,,,,
3300NS0283,,"Church Street, Fiskerton Road",,53.0757458947,-0.9452645393,,,,,,
3300NS0298,,"Church Street, Farthingate",,53.0760794648,-0.9484209842,,,,,,
3300NS0304,,"Church Street, The Minster",,53.077597419,-0.95439993,,,,,,
3300NS0341,,"Nottingham Road for Halloughton",,53.0593849902,-0.9688521869,,,,,,
3300NS0417,,"Brakes Farm",,53.0062264055,-1.0053801078,,,,,,
3300NS0418,,"Brakes Farm",,53.005760784,-1.0055994504,,,,,,
3300NS0419,,"Skithorne Rise",,53.0045036764,-1.0079233262,,,,,,
3300NS0420,,"Tall Trees",,52.9981982561,-1.0183043857,,,,,,
3300NS0421,,"Holy Trinity Church",,52.9962440914,-1.0222524158,,,,,,
3300NS0422,,"Nottingham Road",,52.9943425787,-1.0249622833,,,,,,
3300NS0426,,"Lowdham, War Memorial",,53.0087286289,-1.0014624587,,,,,,
3300NS0437,,"Old Main Road",,52.9937460444,-1.0267635756,,,,,,
3300NS0458,,"Thurgarton, Corner Croft",,53.0364346019,-0.9646869953,,,,,,
3300NS0495,,"Skithorne Rise",,53.0044746,-1.0076706494,,,,,,
3300NS0496,,"Southwell, Hillside Drive",,53.0749092851,-0.9615553258,,,,,,
3300NS0497,,"The Dumbles",,53.0755261393,-0.9673620644,,,,,,
3300NS0498,,"Southwell, Vicarage Road",,53.0774006723,-0.9689443474,,,,,,
3300NS0500,,"Woodland View",,53.0795574128,-0.9626527089,,,,,,
3300NS0502,,Co-op,,53.0803642448,-0.9562288611,,,,,,
3300NS0503,,"Queen Street",,53.0790711216,-0.9574096156,,,,,,
3300NS0698,,"Nottingham Road",,52.9943533982,-1.0251855251,,,,,,
3300NS0699,,"Old Main Road",,52.9936378242,-1.0267213117,,,,,,
3300NS0743,,"Tall Trees",,52.9986623033,-1.0178915484,,,,,,
3300NS0749,,"Nottingham Road for Halloughton",,53.0591980597,-0.96906555,,,,,,
3300NS0761,,"Park Terrace",,53.0747620592,-0.9580809082,,,,,,
3300NS0764,,"Station Road",,53.0811661186,-0.9492823717,,,,,,
3300NS0765,,"Meadow View",,53.0792178554,-0.9454931954,,,,,,
3300NS0769,,"Thurgarton, Corner Croft",,53.0366151331,-0.9647721538,,,,,,
3300NS0783,,"Lowdham, War Memorial",,53.0087121542,-1.0016416869,,,,,,
3300NS0844,,"Southwell, Minster School",,53.0724323202,-0.9579132429,,,,,,
3300NS0893,,"Gonalston Farm",,53.0132245361,-0.9941295032,,,,,,
3300NS0894,,"Gonalston Farm",,53.0135742114,-0.9929587298,,,,,,
3300NS0951,,"Southwell Leisure Centre",,53.0727308908,-0.9591598338,,,,,,
3300NS0952,,"Southwell Leisure Centre",,53.0727810309,-0.9587257658,,,,,,
3300NS0972,,"Thurgarton, Station Road",,53.0295190594,-0.9695645285,,,,,,
3300NS0973,,"Thurgarton, Station Road",,53.0295299837,-0.9697879366,,,,,,
3300NS1040,,"Thurgarton, Orchard View",,53.0386054573,-0.9641577425,,,,,,
3300NS1041,,"Thurgarton, Orchard View",,53.0386516936,-0.9643057784,,,,,,
3300NS1057,,"Gonalston Crossroads",,53.0183697351,-0.9860344369,,,,,,
3300NS1058,,"Gonalston Crossroads",,53.0179947909,-0.9863413699,,,,,,
3300RU0001,,"Balmoral Avenue",,52.9337957513,-1.1362729167,,,,,,
3300RU0002,,"County Hall",,52.9364096063,-1.1347478668,,,,,,
3300RU0003,,"County Hall",,52.9362538819,-1.1343492406,,,,,,
3300RU0004,,"County Hall",,52.9364064652,-1.1343164386,,,,,,
3300RU0005,,"Balmoral Avenue",,52.9333320367,-1.1367879961,,,,,,
3300RU0008,,"Wilford Lane, ROKO",,52.9260393632,-1.152730733,,,,,,
3300RU0009,,ROKO,,52.9258876224,-1.1528824485,,,,,,
3300RU0010,,"Foxfield Way",,52.9273095612,-1.1493291195,,,,,,
3300RU0014,,"Little Bounds",,52.9316866862,-1.1392308574,,,,,,
3300RU0015,,"Little Bounds",,52.9317865264,-1.1393627738,,,,,,
3300RU0016,,"Bruce Drive",,52.9308881139,-1.1419245733,,,,,,
3300RU0017,,"Bruce Drive",,52.9305349156,-1.1428092979,,,,,,
3300RU0018,,"Gresham Close",,52.9294418937,-1.145821081,,,,,,
3300RU0019,,"Foxfield Way",,52.9275397427,-1.1488337023,,,,,,
3300RU0020,,"Gresham Close",,52.9294490645,-1.1455680377,,,,,,
3300RU0022,,"Queensbury Avenue",,52.913894737,-1.1452346374,,,,,,
3300RU0023,,"Rectory Road",,52.9306033136,-1.1274995085,,,,,,
3300RU0030,,"Greythorn Drive Top",,52.9119589375,-1.1448117483,,,,,,
3300RU0032,,"Queensbury Avenue",,52.9135987649,-1.1453296899,,,,,,
3300RU0033,,"Laughton Avenue",,52.9161143105,-1.1451165871,,,,,,
3300RU0034,,"Stowe Avenue",,52.9219652007,-1.1411936272,,,,,,
3300RU0035,,"Stowe Avenue",,52.9219240193,-1.1417150326,,,,,,
3300RU0036,,"Burnside Road",,52.9220625674,-1.138499494,,,,,,
3300RU0037,,"Burnside Road",,52.9222554564,-1.13782633,,,,,,
3300RU0039,,"Greythorn Drive Top",,52.9117231015,-1.1445189817,,,,,,
3300RU0041,,"Highfield Road",,52.9293903928,-1.1312727937,,,,,,
3300RU0042,,"Highfield Road",,52.9295066963,-1.1311960826,,,,,,
3300RU0043,,"Rectory Road",,52.9303670702,-1.1283819968,,,,,,
3300RU0046,,"Musters Rd, Kingston Rd",,52.924451532,-1.1320112545,,,,,,
3300RU0059,,"South Road",,52.926933591,-1.1321401309,,,,,,
3300RU0062,,"Selby Road",,52.9166087696,-1.1265760818,,,,,,
3300RU0071,,"Loughborough Rd, ASDA",,52.9241993246,-1.1368803604,,,,,,
3300RU0073,,"Chaworth Road",,52.9259537305,-1.1383181418,,,,,,
3300RU0078,,"Boundary Road",,52.9158674585,-1.1296843607,,,,,,
3300RU0079,,"Boundary Road",,52.9156553328,-1.1301793845,,,,,,
3300RU0080,,"Ellesmere Road",,52.9167328751,-1.1312434744,,,,,,
3300RU0081,,"Ellesmere Road",,52.9170465944,-1.1311182188,,,,,,
3300RU0082,,"Malvern Road",,52.9196555796,-1.1313932199,,,,,,
3300RU0083,,"Malvern Road",,52.9200075342,-1.1315795326,,,,,,
3300RU0084,,"Sherborne Road",,52.9215808042,-1.1315926847,,,,,,
3300RU0091,,"Melton Road",,52.9282239869,-1.131578787,,,,,,
3300RU0092,,"Melton Rd Shops",,52.9269044798,-1.1293887008,,,,,,
3300RU0103,,"South Road",,52.926655607,-1.1322349428,,,,,,
3300RU0105,,"Musters Rd, Kingston Rd",,52.9241538336,-1.131868459,,,,,,
3300RU0106,,"Willow Road",,52.9150366169,-1.1328538072,,,,,,
3300RU0107,,"Willow Road",,52.9149898309,-1.1326019234,,,,,,
3300RU0108,,"Sutherland Drive",,52.917159492,-1.1244531223,,,,,,
3300RU0110,,"Victoria Road",,52.9314841296,-1.1373305799,,,,,,
3300RU0111,,"Victoria Road",,52.9309450505,-1.1373710496,,,,,,
3300RU0112,,"Chestnut Grove",,52.9286829249,-1.1378176704,,,,,,
3300RU0113,,"Chestnut Grove",,52.9285111769,-1.1376871955,,,,,,
3300RU0114,,"Chaworth Road",,52.9259339207,-1.1380656532,,,,,,
3300RU0116,,"Gamston, Morrisons",,52.9238392595,-1.1016344723,,,,,,
3300RU0117,,Woodview,,52.914738668,-1.1083811309,,,,,,
3300RU0118,,"Mickleborough Way",,52.9134849059,-1.1520239364,,,,,,
3300RU0119,,"Industrial Estate",,52.9136314712,-1.1574639219,,,,,,
3300RU0122,,"Industrial Estate",,52.9136118077,-1.1572263648,,,,,,
3300RU0123,,"Cranford Gardens",,52.9152787469,-1.1514535254,,,,,,
3300RU0124,,"Lings Bar House",,52.9230863883,-1.1019326672,,,,,,
3300RU0135,,"Edwalton, Wellin La terminus",,52.9125537314,-1.1119206388,,,,,,
3300RU0136,,"Kingfishers Court",,52.9166158636,-1.1081641185,,,,,,
3300RU0137,,"Herons Court",,52.9171330246,-1.1052087576,,,,,,
3300RU0138,,"Rosthwaite Close",,52.9179875031,-1.1028858779,,,,,,
3300RU0140,,"Mickleborough Way",,52.9135811244,-1.1516502788,,,,,,
3300RU0146,,"Watendlath Close",,52.9191206908,-1.1017618541,,,,,,
3300RU0147,,"Yew Dale Close",,52.9206454232,-1.1024888637,,,,,,
3300RU0148,,"Claremont Drive",,52.9126439286,-1.1525905777,,,,,,
3300RU0150,,"Ruddington, Kirk Lane",,52.8917244289,-1.144957266,,,,,,
3300RU0151,,"Loughboro' Rd, Ashworth Av",,52.8976328214,-1.1415259568,,,,,,
3300RU0152,,"Ashworth Avenue",,52.8968772664,-1.1414665564,,,,,,
3300RU0153,,"Flawforth Lane",,52.8914375367,-1.1425698735,,,,,,
3300RU0154,,"Flawforth Lane",,52.8911699243,-1.1428575592,,,,,,
3300RU0158,,"Rushcliffe Country Park",,52.8843406221,-1.1444931904,,,,,,
3300RU0160,,"Kirk Lane",,52.8916192421,-1.1453309264,,,,,,
3300RU0161,,"Chapel Street",,52.8907871174,-1.1508913205,,,,,,
3300RU0166,,"Scout Hut",,52.8878989024,-1.1417776588,,,,,,
3300RU0168,,"Apple Tree Close",,52.9144650395,-1.1174881058,,,,,,
3300RU0174,,"Landmere Lane",,52.9030170723,-1.1439470486,,,,,,
3300RU0176,,"Landmere Lane",,52.9039076643,-1.1440335744,,,,,,
3300RU0186,,Woodview,,52.9144232998,-1.1082835057,,,,,,
3300RU0187,,"Walcote Drive",,52.9199912571,-1.1442073446,,,,,,
3300RU0188,,"Rushcliffe Arena",,52.9218739754,-1.1435009025,,,,,,
3300RU0189,,"Rushcliffe Arena",,52.9217754258,-1.1435474687,,,,,,
3300RU0195,,"Syon Park Close",,52.9213986667,-1.1461578229,,,,,,
3300RU0201,,"Syon Park Close",,52.9213507331,-1.1457422986,,,,,,
3300RU0202,,"Exeter Road",,52.9246738436,-1.1267708169,,,,,,
3300RU0203,,"Firs Road",,52.9149102621,-1.1193380132,,,,,,
3300RU0205,,"Valley Road",,52.918920402,-1.1218743283,,,,,,
3300RU0206,,"Dovedale Road",,52.9207139017,-1.1237121307,,,,,,
3300RU0207,,"Dovedale Road",,52.9210049234,-1.1241673423,,,,,,
3300RU0208,,"Mellors Road",,52.922746772,-1.1250990327,,,,,,
3300RU0209,,"Walcote Drive",,52.9197470742,-1.1440039318,,,,,,
3300RU0210,,"Exeter Road",,52.9241506682,-1.1265284693,,,,,,
3300RU0212,,"Taunton Road",,52.92549032,-1.1277807853,,,,,,
3300RU0213,,"Melton Rd Shops",,52.9263311356,-1.1284332897,,,,,,
3300RU0214,,"Alford Rd, Spinney Close",,52.9172148101,-1.1101149793,,,,,,
3300RU0215,,"Laughton Avenue",,52.9165459623,-1.1451378334,,,,,,
3300RU0218,,"Mellors Road",,52.9229926284,-1.1255254357,,,,,,
3300RU0219,,"Charlecote Park Drive",,52.9171285651,-1.1524286982,,,,,,
3300RU0220,,"Leahurst Road",,52.9213458739,-1.1131686895,,,,,,
3300RU0221,,"Leahurst Road",,52.9209470631,-1.1127306243,,,,,,
3300RU0222,,"Alford Road",,52.9201616466,-1.1122855984,,,,,,
3300RU0223,,"Alford Road",,52.9190214642,-1.1112826692,,,,,,
3300RU0224,,"Alford Rd, Spinney Close",,52.9174668139,-1.1101544322,,,,,,
3300RU0225,,"Parkstone Close",,52.9189832306,-1.1528238115,,,,,,
3300RU0227,,"Compton Acres Shops",,52.9180269913,-1.1536158478,,,,,,
3300RU0228,,"Burleigh Road",,52.9251266726,-1.1223437914,,,,,,
3300RU0229,,"Charlecote Park Drive",,52.9169726877,-1.1520004437,,,,,,
3300RU0230,,"Loughborough Rd, ASDA",,52.9229523534,-1.1359978154,,,,,,
3300RU0231,,"Cranford Gardens",,52.9150378672,-1.1517110504,,,,,,
3300RU0233,,"Melton Gardens, Alford Rd",,52.9159585975,-1.1116279247,,,,,,
3300RU0234,,"Melton Gardens",,52.9150424535,-1.1153497192,,,,,,
3300RU0235,,"Compton Acres Shops",,52.9177537404,-1.1531155064,,,,,,
3300RU0237,,"Firs Road",,52.915243047,-1.1193610077,,,,,,
3300RU0238,,"Dorset Gardens",,52.92029976,-1.1496152034,,,,,,
3300RU0239,,"Dorset Gardens",,52.9199687889,-1.149844786,,,,,,
3300RU0240,,"Parkstone Close",,52.9190815719,-1.1527475276,,,,,,
3300RU0243,,"Trevor Road",,52.9230856629,-1.1210761039,,,,,,
3300RU0245,,"Burleigh Road",,52.9249923984,-1.1224208817,,,,,,
3300RU0248,,"Gordon Road",,52.9296793231,-1.1253163322,,,,,,
3300RU0249,,"Gordon Road",,52.9294375167,-1.1254402182,,,,,,
3300RU0250,,"Ethel Road",,52.9278706141,-1.1238502974,,,,,,
3300RU0251,,"Ethel Road",,52.9277612203,-1.123644241,,,,,,
3300RU0253,,"Adbolton Lane, opposite terminus",,52.9383616235,-1.1117644746,,,,,,
3300RU0258,,"Buckfast Way, Bisham Drive",,52.9279934657,-1.1113369928,,,,,,
3300RU0259,,"Eltham Road",,52.9295371157,-1.1121979863,,,,,,
3300RU0260,,"Buckfast Way, Bisham Drive",,52.927744687,-1.1117288636,,,,,,
3300RU0270,,"Mountsorrel Drive",,52.9267784067,-1.1123436667,,,,,,
3300RU0271,,"Mountsorrel Drive",,52.9267141562,-1.1121664723,,,,,,
3300RU0272,,"Nearsby Drive",,52.9251070321,-1.1112324585,,,,,,
3300RU0273,,"Covert Road",,52.9238981911,-1.1130719251,,,,,,
3300RU0284,,"Tudor Square",,52.9311894599,-1.1240808421,,,,,,
3300RU0286,,"Glenmore Road",,52.9235391945,-1.1155633189,,,,,,
3300RU0305,,"Nearsby Drive",,52.924863906,-1.111177936,,,,,,
3300RU0315,,"Europa Way",,52.910679903,-1.1469633667,,,,,,
3300RU0318,,"The Old School House",,52.7985986113,-1.1961596208,,,,,,
3300RU0319,,"Glenmore Road",,52.9235597158,-1.1159050169,,,,,,
3300RU0320,,"Stamford Road",,52.923269255,-1.1179487402,,,,,,
3300RU0321,,"Stamford Rd, Trevor Rd",,52.9229619937,-1.1201563948,,,,,,
3300RU0322,,"Stamford Road",,52.9230612593,-1.1189941769,,,,,,
3300RU0337,,"Covert Road",,52.9239705406,-1.113129946,,,,,,
3300RU0339,,"E.Leake, Lantern La",,52.8367469494,-1.1785176891,,,,,,
3300RU0342,,"Gypsum Way",,52.8593983385,-1.2018839678,,,,,,
3300RU0343,,"Ridgeway Plantation",,52.8511855393,-1.1891598103,,,,,,
3300RU0344,,"Ridgeway Plantation",,52.8512680573,-1.1893958701,,,,,,
3300RU0345,,"Highthorn Farm",,52.8484811298,-1.1867452742,,,,,,
3300RU0346,,"Bunny Lane",,52.8467989111,-1.1839555252,,,,,,
3300RU0347,,"Gypsum Works",,52.8429826709,-1.1806716328,,,,,,
3300RU0349,,"St.Mary's Cres",,52.8394927488,-1.1790894147,,,,,,
3300RU0351,,"E.Leake, Lantern La",,52.8359346989,-1.1780579834,,,,,,
3300RU0352,,"Stonebridge Drive",,52.8345029603,-1.1777139009,,,,,,
3300RU0359,,"St.Mary's Cres",,52.8397075489,-1.1789517524,,,,,,
3300RU0360,,"Eyres Lane",,52.8622419424,-1.2049956123,,,,,,
3300RU0363,,"Barton Lane",,52.886241046,-1.2005144024,,,,,,
3300RU0364,,"Nottingham Road",,52.8744456762,-1.2016970032,,,,,,
3300RU0365,,"Bidwell Crescent",,52.8710685006,-1.2021304011,,,,,,
3300RU0366,,"Wallace Street",,52.8701436649,-1.2036329894,,,,,,
3300RU0367,,"Wallace Street",,52.8696435942,-1.2041323949,,,,,,
3300RU0368,,"Curzon Street",,52.8670563565,-1.2057395228,,,,,,
3300RU0370,,"Gotham, Leake Rd (Garage)",,52.8641433858,-1.2056887231,,,,,,
3300RU0380,,"Brockley Road",,52.9308639327,-1.1129147005,,,,,,
3300RU0381,,"Gotham, Leake Rd (Garage)",,52.8645463787,-1.2054585507,,,,,,
3300RU0382,,"Tudor Square",,52.9310580338,-1.124544687,,,,,,
3300RU0384,,"Cyril Road",,52.9311631102,-1.1180858573,,,,,,
3300RU0385,,"Abbey Road",,52.9311617777,-1.1203323437,,,,,,
3300RU0386,,"Davies Road",,52.9311842923,-1.1221617854,,,,,,
3300RU0392,,"Davies Road",,52.9310903442,-1.1216132297,,,,,,
3300RU0396,,"School Green",,52.8303609987,-1.1819480433,,,,,,
3300RU0397,,"School Green",,52.8306656876,-1.1818087362,,,,,,
3300RU0398,,"Melton Road",,52.8144808139,-1.1800057011,,,,,,
3300RU0399,,"Leake Lane",,52.808971304,-1.1867110889,,,,,,
3300RU0400,,"Leake Lane",,52.8090345286,-1.1867544157,,,,,,
3300RU0403,,"Woodgate Road",,52.8269302267,-1.1850401347,,,,,,
3300RU0404,,"Cyril Road",,52.931065056,-1.1169869384,,,,,,
3300RU0405,,"Brockley Road",,52.931075211,-1.1135203468,,,,,,
3300RU0407,,"Stonebridge Drive",,52.8340269814,-1.1777822629,,,,,,
3300RU0408,,"East Leake Shops",,52.831894242,-1.1774662852,,,,,,
3300RU0409,,"East Leake Shops",,52.8317307013,-1.1772170398,,,,,,
3300RU0413,,"Woodgate Road",,52.82680398,-1.1849831305,,,,,,
3300RU0415,,"East Leake, Kirk Ley Rd Top",,52.823834031,-1.1871163502,,,,,,
3300RU0416,,"East Leake, Kirk Ley Rd Top",,52.8239960277,-1.1871430089,,,,,,
3300RU0423,,"Stanford on Soar Church",,52.7935927164,-1.1950358038,,,,,,
3300RU0447,,"Ruddington, Clifton La, Nth Rd",,52.8959086858,-1.1606616757,,,,,,
3300RU0448,,"Ruddington, Clifton La, Nth Rd",,52.8960995407,-1.1609552926,,,,,,
3300RU0467,,"Repton Road",,52.9225533013,-1.1355149072,,,,,,
3300RU0468,,"Europa Way",,52.9105238993,-1.1465203273,,,,,,
3300RU0469,,Cloverlands,,52.9105253778,-1.1504906177,,,,,,
3300RU0470,,"Landmere La, Cloverlands",,52.9103910845,-1.1505675947,,,,,,
3300RU0471,,"Maythorn Close",,52.911632677,-1.1519708782,,,,,,
3300RU0472,,"Maythorn Close",,52.9118673279,-1.1521001314,,,,,,
3300RU0473,,"Fox Road",,52.9382239747,-1.1308429835,,,,,,
3300RU0479,,"Repton Road",,52.9226132978,-1.1351121073,,,,,,
3300RU0480,,"Sherborne Road",,52.9216808701,-1.1317542966,,,,,,
3300RU0481,,"Primary School",,52.9383741695,-1.1207069122,,,,,,
3300RU0482,,"Oakham Road",,52.9085517302,-1.1447896165,,,,,,
3300RU0483,,"Oakham Road",,52.9091935363,-1.145282548,,,,,,
3300RU0484,,"Wilford Hill Cemetery",,52.9129409679,-1.1413720935,,,,,,
3300RU0485,,"Wilford Hill Cemetery",,52.9131238107,-1.1405505731,,,,,,
3300RU0486,,"Stanholme Drive",,52.9138077759,-1.1381725092,,,,,,
3300RU0489,,"Wilford Road",,52.8948953196,-1.1508853766,,,,,,
3300RU0510,,"Cricket Ground",,52.9376257221,-1.1338606097,,,,,,
3300RU0511,,Skylarks,,52.938463012,-1.1072984803,,,,,,
3300RU0512,,"Adbolton Lane Terminus",,52.9386045266,-1.1117892614,,,,,,
3300RU0513,,"Seymour Road",,52.938001661,-1.1141228153,,,,,,
3300RU0514,,"Seymour Road",,52.9380525959,-1.1137200266,,,,,,
3300RU0515,,"Gertrude Road",,52.9381162561,-1.1162333793,,,,,,
3300RU0516,,"Gertrude Road",,52.9382182224,-1.1166479322,,,,,,
3300RU0517,,"Primary School",,52.9384329037,-1.120140293,,,,,,
3300RU0518,,"Woodland Road",,52.9387459018,-1.1260114711,,,,,,
3300RU0520,,"Fox Road",,52.9379147148,-1.1315782749,,,,,,
3300RU0529,,"Camelot Street",,52.8953906882,-1.1548000375,,,,,,
3300RU0530,,"Woodland Road",,52.9386324622,-1.125254888,,,,,,
3300RU0531,,"Central Ave Shops",,52.9316825851,-1.1263471294,,,,,,
3300RU0535,,"Cricket Ground",,52.9364280105,-1.1335720585,,,,,,
3300RU0536,,"Cricket Ground",,52.936480747,-1.1334073362,,,,,,
3300RU0537,,"Hound Road",,52.9354167482,-1.1317324182,,,,,,
3300RU0538,,"Hound Road",,52.9353425601,-1.1314214514,,,,,,
3300RU0539,,Co-Op,,52.9340529565,-1.1296321243,,,,,,
3300RU0540,,"Regatta Way",,52.9390676471,-1.105217728,,,,,,
3300RU0541,,"Central Ave Shops",,52.9319737059,-1.1268173483,,,,,,
3300RU0543,,"National Water Sports Centre",,52.9411911762,-1.0900849228,,,,,,
3300RU0544,,"National Water Sports Centre",,52.9407718088,-1.0904954932,,,,,,
3300RU0545,,"Caravan Park",,52.9405277805,-1.0997711315,,,,,,
3300RU0546,,"Caravan Park",,52.940077605,-1.100866734,,,,,,
3300RU0552,,Co-Op,,52.9336053404,-1.1286591512,,,,,,
3300RU0553,,"Grange Court",,52.9051277855,-1.1524695742,,,,,,
3300RU0554,,"High Street",,52.8918717882,-1.1492053927,,,,,,
3300RU0555,,"Easthorpe Street",,52.8929350116,-1.1482927335,,,,,,
3300RU0556,,"Easthorpe Street",,52.8929045301,-1.1478028163,,,,,,
3300RU0557,,"Rufford Road",,52.8943885018,-1.1453953823,,,,,,
3300RU0558,,"Rufford Road",,52.8944588048,-1.1451710306,,,,,,
3300RU0559,,"Upper Canaan",,52.8961656123,-1.1462523453,,,,,,
3300RU0560,,"Upper Canaan",,52.8964074426,-1.1461286719,,,,,,
3300RU0561,,"Packman Drive",,52.8979069968,-1.1458910838,,,,,,
3300RU0563,,"Ashworth Avenue",,52.8973940017,-1.1420658374,,,,,,
3300RU0565,,"Grange Court",,52.9054913462,-1.1530274797,,,,,,
3300RU0566,,"Paget Crescent",,52.8977605797,-1.1505469384,,,,,,
3300RU0567,,"Savages Road",,52.8968252619,-1.1504908952,,,,,,
3300RU0568,,"Clifton Road",,52.8948815499,-1.1502167318,,,,,,
3300RU0569,,"Savages Road",,52.896490568,-1.1502001322,,,,,,
3300RU0570,,"Clifton Road",,52.8947270473,-1.1499819178,,,,,,
3300RU0571,,"Wilford Road",,52.8946241824,-1.1506825691,,,,,,
3300RU0572,,"Stanholme Drive",,52.9137763886,-1.1375634115,,,,,,
3300RU0573,,"Packman Drive",,52.8981452995,-1.1452768988,,,,,,
3300RU0583,,"Ruddington Church",,52.8924011941,-1.1503246858,,,,,,
3300RU0585,,"Ruddington Green",,52.8904409919,-1.1502589633,,,,,,
3300RU0594,,"Camelot Street",,52.8952810305,-1.1545494672,,,,,,
3300RU0600,,"Eltham Road",,52.9300632065,-1.112826929,,,,,,
3300RU0603,,"Valley Road",,52.9173961149,-1.1211912754,,,,,,
3300RU0604,,"Rushcliffe School",,52.9163832089,-1.1252421262,,,,,,
3300RU0620,,"Gypsum Works",,52.8429386502,-1.1808060839,,,,,,
3300RU0695,,"Scout Hut",,52.8875988518,-1.1413079902,,,,,,
3300RU0699,,"Stanford on Soar Church",,52.7935755435,-1.1951547619,,,,,,
3300RU0700,,"The Old School House",,52.7986800107,-1.1962322798,,,,,,
3300RU0705,,"Highthorn Farm",,52.8485976752,-1.1866985502,,,,,,
3300RU0706,,"Bunny Lane",,52.8468157658,-1.183791878,,,,,,
3300RU0707,,"Gypsum Way",,52.8593515995,-1.2016174791,,,,,,
3300RU0708,,"Eyres Lane",,52.8622881769,-1.2051878637,,,,,,
3300RU0709,,"Curzon Street",,52.8669831573,-1.2055477422,,,,,,
3300RU0710,,"Nottingham Road",,52.8745520404,-1.2014721846,,,,,,
3300RU0711,,"Melton Road",,52.8145247319,-1.1798565019,,,,,,
3300RU0713,,"Lings Bar House",,52.9229780807,-1.10187541,,,,,,
3300RU0714,,"Yew Dale Close",,52.9205017246,-1.1025067079,,,,,,
3300RU0715,,"Watendlath Close",,52.9191668679,-1.1019245031,,,,,,
3300RU0716,,"Rosthwaite Close",,52.9180066018,-1.1030342105,,,,,,
3300RU0717,,"Herons Court",,52.9171704327,-1.1054013283,,,,,,
3300RU0718,,"Kingfishers Court",,52.9165597023,-1.1078678276,,,,,,
3300RU0719,,"Melton Gdns, Alford Rd",,52.9158865807,-1.1116145261,,,,,,
3300RU0720,,"Melton Gardens",,52.9151527667,-1.1144700397,,,,,,
3300RU0721,,"Apple Tree Close",,52.9143923607,-1.1173854825,,,,,,
3300RU0782,,Skylarks,,52.9385565796,-1.1077875873,,,,,,
3300RU0790,,"Barton Lane",,52.8862579229,-1.2003506127,,,,,,
3300RU0804,,"East Leake Academy",,52.8351072288,-1.1741101695,,,,,,
3300RU0811,,"Adbolton Lane, outside terminus",,52.9384776916,-1.1116579404,,,,,,
3300RU0814,,"Mere Way, The Avenue",,52.8858085638,-1.1411204293,,,,,,
3300RU0817,,"Greythorn Drive",,52.9117273787,-1.1438645942,,,,,,
3300RU0818,,"Greythorn Drive",,52.9119031802,-1.143310917,,,,,,
3300RU0860,,"Mere Way, The Avenue",,52.8856911784,-1.1410484404,,,,,,
3300RU0888,,"Paget Crescent",,52.8980858595,-1.1507784331,,,,,,
3300RU0918,,"Rempstone Road",,52.8201910534,-1.1789633821,,,,,,
3300RU0919,,"Rempstone Road",,52.8200920772,-1.1789504077,,,,,,
3390A1,,"City, Angel Row A1",,52.9536786169,-1.1522354625,,,,,,
3390A2,,"City, Angel Row A2",,52.9537432324,-1.1524723581,,,,,,
3390A3,,"City, Angel Row A3",,52.9538543794,-1.1529316198,,,,,,
3390A4,,"City, Angel Row A4",,52.9539282998,-1.1532129906,,,,,,
3390AS01,,"Bells Lane, Walbrook Close",,52.9853912657,-1.2039437752,,,,,,
3390AS02,,"Harpenden Square",,52.9840759605,-1.2048616649,,,,,,
3390AS03,,"Dulverton Vale",,52.9828589224,-1.2056883275,,,,,,
3390AS04,,"Eltham Drive",,52.9808422149,-1.2065742723,,,,,,
3390AS05,,"Eltham Drive",,52.9812021456,-1.2066272576,,,,,,
3390AS06,,"Dulverton Vale",,52.9834418703,-1.2054840023,,,,,,
3390AS07,,"Bells Lane, Walbrook Close",,52.9854372041,-1.2040918886,,,,,,
3390AS08,,"Exbourne Road",,52.9734308596,-1.2127261957,,,,,,
3390AS09,,"Ambleside Road",,52.9727782314,-1.2078536699,,,,,,
3390AS10,,"Grannis Drive",,52.9723040324,-1.2054946291,,,,,,
3390AS11,,"Aylestone Drive",,52.9720134509,-1.2023728145,,,,,,
3390AS12,,"Aspley La, Melbourne Rd",,52.971314301,-1.1986629535,,,,,,
3390AS13,,"St Margarets Church",,52.9691638827,-1.1943845611,,,,,,
3390AS14,,"Bluecoat School",,52.9681022424,-1.1916050081,,,,,,
3390AS15,,"Fitness Centre",,52.9673362376,-1.1886860517,,,,,,
3390AS16,,"Ascot Road",,52.9674422414,-1.1844703112,,,,,,
3390AS17,,"Ascot Road",,52.9672754443,-1.1850541417,,,,,,
3390AS18,,"Fitness Centre",,52.9672853542,-1.1891336904,,,,,,
3390AS19,,"Aspley La, Bluecoat Sch",,52.9681609272,-1.192303736,,,,,,
3390AS20,,"St Margarets Church",,52.9692658801,-1.1948442619,,,,,,
3390AS21,,"Aspley La, Melbourne Rd",,52.9713903196,-1.1992720765,,,,,,
3390AS22,,"Aylestone Drive",,52.9719443398,-1.2027910381,,,,,,
3390AS23,,"Grannis Drive",,52.9721479468,-1.2050060812,,,,,,
3390AS24,,"Ambleside Road",,52.9726430095,-1.2077965762,,,,,,
3390AS25,,"Exbourne Road",,52.9735290168,-1.2139753123,,,,,,
3390AS26,,"Broxtowe Lane",,52.976313453,-1.2095612641,,,,,,
3390AS27,,"Minver Crescent",,52.9763002245,-1.2062255581,,,,,,
3390AS33,,"Minver Crescent",,52.976222211,-1.2066588725,,,,,,
3390AS34,,"Broxtowe Lane",,52.9762443168,-1.2099795181,,,,,,
3390AS39,,"Nuthall Road",,52.9767434501,-1.1919501521,,,,,,
3390AS41,,"Harwill Crescent",,52.9762304957,-1.1958466898,,,,,,
3390AS42,,"Shepton Crescent",,52.976220019,-1.1982892715,,,,,,
3390AS43,,"Minver Cres, Hilcot Drive",,52.9768390752,-1.2007798103,,,,,,
3390AS50,,"Roslyn Drive",,52.9776412369,-1.2037734177,,,,,,
3390AS51,,"Minver Cres, Hilcot Drive",,52.9767840443,-1.2006170046,,,,,,
3390AS52,,"Shepton Crescent",,52.976305383,-1.1976175236,,,,,,
3390AS53,,"Harwill Crescent",,52.9763226167,-1.1948471731,,,,,,
3390AS54,,"Nuthall Road",,52.9769248349,-1.192185055,,,,,,
3390AS57,,"Bells Lane",,52.9807016244,-1.2057129871,,,,,,
3390AS58,,"The Green",,52.9810666949,-1.2025040269,,,,,,
3390AS59,,"Dulverton Vale",,52.9814221178,-1.200546319,,,,,,
3390AS60,,"Broxtowe La, Broxtowe Ave",,52.981902087,-1.1970670297,,,,,,
3390AS61,,"Broxtowe La, Broxtowe Ave",,52.9818094885,-1.1966665937,,,,,,
3390AS62,,"Dulverton Vale",,52.981573486,-1.1989945035,,,,,,
3390AS63,,"The Green",,52.98091609,-1.202834472,,,,,,
3390AS64,,"Bells Lane",,52.9805938639,-1.2057298569,,,,,,
3390AS67,,"Coleby Road",,52.977599083,-1.2095824896,,,,,,
3390AS68,,"Coleby Road",,52.9777611701,-1.2096242121,,,,,,
3390AS79,,"Rosslyn Drive",,52.9772433381,-1.2047636644,,,,,,
3390ASMA,,"Nottingham Girls Academy",,52.9675148729,-1.2004603937,,,,,,
3390B2,,"City, Beastmarket Hill B2",,52.9532679875,-1.1513801738,,,,,,
3390B3,,"City, Beastmarket Hill B3",,52.9533409557,-1.1515275937,,,,,,
3390BA06,,"Vernon Avenue",,52.9832226302,-1.1798090124,,,,,,
3390BA07,,"Vernon Rd, Basford Crossing",,52.9841726603,-1.1806996408,,,,,,
3390BA08,,"Vernon Avenue",,52.9829856476,-1.179336861,,,,,,
3390BA09,,"Nottingham Road",,52.9819164961,-1.1781208647,,,,,,
3390BA14,,"Hucknall Road",,52.9865605596,-1.1608872305,,,,,,
3390BA15,,"Ventnor Rise",,52.9856077875,-1.1647339267,,,,,,
3390BA16,,"Heatherley Drive",,52.9845533789,-1.1694910286,,,,,,
3390BA17,,"Valley Rd, Futurist",,52.9809668715,-1.1734025061,,,,,,
3390BA18,,"Valley Rd, Futurist",,52.9818833631,-1.1733403349,,,,,,
3390BA19,,"Valley Road, Heatherley Drive",,52.9847695127,-1.1695464669,,,,,,
3390BA20,,"Valley Road, Ventnor Rise",,52.9856644359,-1.1651201273,,,,,,
3390BA21,,"Beech Avenue",,52.9719415403,-1.15930893,,,,,,
3390BA22,,"Sherwood Rise Health Centre",,52.9733184799,-1.1608011649,,,,,,
3390BA23,,"Central Avenue",,52.974751952,-1.1626647044,,,,,,
3390BA24,,"Haydn Road",,52.9770386424,-1.1669841389,,,,,,
3390BA25,,"Nottingham Rd, Zulu Rd",,52.9783258749,-1.1698040213,,,,,,
3390BA26,,"Perry Road",,52.979730199,-1.1726665158,,,,,,
3390BA27,,"Basford Church",,52.9799009239,-1.1791420987,,,,,,
3390BA28,,"Basford Road",,52.9807461122,-1.1817772482,,,,,,
3390BA29,,"Bar Lane",,52.9817914325,-1.1834554819,,,,,,
3390BA30,,"Percy Street, Coriander Dr",,52.9829830923,-1.185503417,,,,,,
3390BA31,,"Percy Street, Coriander Dr",,52.9832283252,-1.1858711817,,,,,,
3390BA32,,"Bar Lane",,52.9814993068,-1.182805633,,,,,,
3390BA33,,"Basford Road",,52.9803440669,-1.180831623,,,,,,
3390BA34,,"Basford Church",,52.9792384038,-1.1782312443,,,,,,
3390BA35,,"Perry Road",,52.9797907335,-1.172322801,,,,,,
3390BA36,,"Nottingham Rd, Zulu Rd",,52.9782403007,-1.1691354613,,,,,,
3390BA37,,"Haydn Road",,52.976216961,-1.1651830345,,,,,,
3390BA38,,"Central Avenue",,52.9738972989,-1.161296278,,,,,,
3390BA39,,"Health Centre",,52.9731542744,-1.1604618383,,,,,,
3390BA82,,"Vernon Road",,52.9811692604,-1.1766605026,,,,,,
3390BE01,,"Beechdale Rd, Beechdale Baths",,52.9609950079,-1.1921097234,,,,,,
3390BE02,,"Redbourne Drive",,52.9611566701,-1.1960667676,,,,,,
3390BE03,,"Enthorpe Street",,52.9612487686,-1.1990574391,,,,,,
3390BE04,,"Enthorpe Street",,52.9614121629,-1.1992926206,,,,,,
3390BE05,,"Redbourne Drive",,52.9612647554,-1.1947695537,,,,,,
3390BE06,,"Beechdale Baths",,52.9611671008,-1.1923000532,,,,,,
3390BE07,,"Chalfont Drive",,52.963574434,-1.1907068206,,,,,,
3390BE08,,"Beechdale Road",,52.9622169945,-1.1907023859,,,,,,
3390BE09,,"Western Blvd, Beechdale Rd",,52.9614654188,-1.1912225925,,,,,,
3390BE10,,"Chalfont Drive",,52.9637568341,-1.1910905119,,,,,,
3390BE11,,"Aspley Gardens",,52.9671990569,-1.1909816043,,,,,,
3390BE12,,"Beechdale Rd Top",,52.9735542186,-1.2164319808,,,,,,
3390BE13,,"Fircroft Avenue",,52.9726418184,-1.2171185892,,,,,,
3390BE14,,"Highwood Avenue",,52.9710594359,-1.2157176562,,,,,,
3390BE15,,"Denewood Crescent",,52.9701291527,-1.2136944931,,,,,,
3390BE16,,"Kingsbury Drive",,52.9693244748,-1.2116393513,,,,,,
3390BE34,,"Aspley Gardens",,52.966854968,-1.1906157918,,,,,,
3390BETR,,"Beechdale Rd, Trinity Sch",,52.9686473796,-1.2098499785,,,,,,
3390BF01,,"Parkdale Road",,52.9597046094,-1.1108062169,,,,,,
3390BF02,,"Eastdale Road",,52.9599446886,-1.1068562101,,,,,,
3390BF07,,"Harrogate Rd, Langdale Rd",,52.9584789887,-1.1056061564,,,,,,
3390BF08,,"Harrogate Road",,52.9570863157,-1.103312649,,,,,,
3390BF09,,"Greenwood Avenue",,52.9572804407,-1.0968926825,,,,,,
3390BF14,,"The Bakersfield",,52.9601113836,-1.1027290309,,,,,,
3390BF15,,"Oakdale Rd, Eastdale Rd",,52.9598135554,-1.1073501847,,,,,,
3390BF16,,"Oakdale Rd, Parkdale Rd",,52.9595236461,-1.1118520155,,,,,,
3390BF21,,"Langdale Road East",,52.9578653211,-1.0993367559,,,,,,
3390BF49,,"Linton Rise",,52.9596748931,-1.1152580415,,,,,,
3390BF50,,"Cardale Road",,52.9610349573,-1.1168232446,,,,,,
3390BI01,,"Felstead Road",,52.9614258687,-1.2040117101,,,,,,
3390BI02,,"Hollington Rd, Bathurst Dr",,52.9615359427,-1.2070318617,,,,,,
3390BI03,,"Greetwell Close",,52.9629466818,-1.2123508601,,,,,,
3390BI04,,"Glaisdale Drive",,52.9643436501,-1.2156158375,,,,,,
3390BI05,,"Graylands Road",,52.9652297559,-1.2191284508,,,,,,
3390BI06,,"Bracebridge Drive End",,52.9663848815,-1.2239317425,,,,,,
3390BI07,,"Darnhall Crescent",,52.965112463,-1.2273193826,,,,,,
3390BI08,,"Bracebridge Drive Shops",,52.9643876842,-1.2292231419,,,,,,
3390BI09,,"Burnside Green",,52.9632909411,-1.2319969458,,,,,,
3390BI10,,"Tremayne Road",,52.9610787158,-1.2360557233,,,,,,
3390BI11,,"Westwick Road",,52.9594993222,-1.2378848573,,,,,,
3390BI12,,"Brindley Road",,52.9581637293,-1.2398882186,,,,,,
3390BI13,,"Stotfield Road",,52.9588033756,-1.2415145286,,,,,,
3390BI14,,"Byley Road",,52.9578604654,-1.243079193,,,,,,
3390BI15,,"Stotfield Road Terminus",,52.9569072894,-1.2416221252,,,,,,
3390BI16,,"Brindley Road",,52.9582717809,-1.2399160972,,,,,,
3390BI17,,"Westwick Road",,52.9595897789,-1.2379725884,,,,,,
3390BI18,,"Tremayne Road",,52.9613917802,-1.2358120073,,,,,,
3390BI19,,"Burnside Green",,52.9630747804,-1.2333258119,,,,,,
3390BI20,,"Bracebridge Drive Shops",,52.964725865,-1.228696027,,,,,,
3390BI21,,"Darnhall Crescent",,52.9654503448,-1.2267475826,,,,,,
3390BI22,,"Wigman Rd, Bracebridge Dr End",,52.966487201,-1.2230812242,,,,,,
3390BI23,,"Graylands Road",,52.9649807846,-1.2168102952,,,,,,
3390BI24,,"Glaisdale Drive",,52.9634649321,-1.2132347362,,,,,,
3390BI25,,"Greetwell Close",,52.9628139376,-1.2113111131,,,,,,
3390BI26,,"Hollington Rd, Bathurst Dr",,52.9616709666,-1.2070591672,,,,,,
3390BI27,,"Felstead Road",,52.9615587006,-1.20371152,,,,,,
3390BI28,,"Wigman Road Top",,52.9716886765,-1.2294655735,,,,,,
3390BI29,,"Fairnley Road",,52.9698633645,-1.2280089863,,,,,,
3390BI30,,"Chingford Road",,52.9678437556,-1.2257072753,,,,,,
3390BI31,,"Bracebridge Drive End",,52.9667274119,-1.2240745029,,,,,,
3390BI32,,"Chingford Road",,52.9686347533,-1.2270779117,,,,,,
3390BI33,,"Fairnley Road",,52.9697839185,-1.2282337568,,,,,,
3390BI34,,"Wigman Road Top",,52.9717539101,-1.2298217986,,,,,,
3390BI35,,"Cockington Road",,52.9592181939,-1.2431299243,,,,,,
3390BI36,,"Trowell Road",,52.9569196139,-1.2449712435,,,,,,
3390BI38,,"Stotfield Road",,52.9594166779,-1.2418313091,,,,,,
3390BI64,,"Stagsden Crescent",,52.9582870451,-1.240898332,,,,,,
3390BP07,,"Holmewood Crescent",,52.9962693839,-1.1583747553,,,,,,
3390BP08,,"Hartcroft Road",,52.9980976367,-1.1601272359,,,,,,
3390BP09,,"Eastglade Road",,52.9992882582,-1.1632481603,,,,,,
3390BP10,,"Belsay Road",,53.001822164,-1.161813347,,,,,,
3390BP11,,"Beckhampton Rd, Elmbridge Shops",,53.0030605562,-1.1576913505,,,,,,
3390BP12,,"Chediston Vale",,53.0058661505,-1.1565488444,,,,,,
3390BP13,,"Belleville Drive",,53.0080099844,-1.1571628221,,,,,,
3390BP14,,"Harkstead Road",,53.0085761137,-1.1584037145,,,,,,
3390BP15,,"Harkstead Road",,53.0086255078,-1.1577618906,,,,,,
3390BP16,,"Chediston Vale",,53.0052487175,-1.1556816206,,,,,,
3390BP17,,"Beckhampton Rd, Elmbridge Shops",,53.0029655023,-1.1569630095,,,,,,
3390BP18,,"Belsay Road",,53.0021234567,-1.1611965493,,,,,,
3390BP19,,"Eastglade Road",,52.9983978692,-1.1619094444,,,,,,
3390BP20,,"Hartcroft Road",,52.9981893068,-1.160378761,,,,,,
3390BP21,,"Holmewood Crescent",,52.9960691131,-1.1580210608,,,,,,
3390BP28,,"Stevenholme Crescent",,52.9974815982,-1.1594537881,,,,,,
3390BP29,,"Oxclose Police Station",,52.9968341811,-1.1543557466,,,,,,
3390BP30,,"Bembridge Drive",,52.9979535724,-1.1537527775,,,,,,
3390BP31,,"Mosswood Crescent",,53.0003896694,-1.1499650144,,,,,,
3390BP32,,"Hillington Rise",,53.0029341222,-1.1512860188,,,,,,
3390BP33,,"Chippenham Rd, Wendling Gdns",,53.004173533,-1.1511275966,,,,,,
3390BP38,,"Deer Park Drive",,53.0067878598,-1.1521642537,,,,,,
3390BP39,,"Chippenham Rd, Wendling Gdns",,53.0044572189,-1.1505706454,,,,,,
3390BP40,,"Hillington Rise",,53.0025574158,-1.1501459726,,,,,,
3390BP41,,"Mosswood Crescent",,53.0003884981,-1.1498011267,,,,,,
3390BP42,,"Bembridge Drive",,52.9984843779,-1.1525503772,,,,,,
3390BP43,,"Oxclose Police Station",,52.9971674855,-1.1544535355,,,,,,
3390BP44,,"Mildenhall Crescent",,53.0060541867,-1.1513887708,,,,,,
3390BP45,,"Tregarth Square",,53.0079812201,-1.154376413,,,,,,
3390BP46,,"Tregarth Square",,53.007960701,-1.1540191282,,,,,,
3390BP55,,"Mildenhall Crescent",,53.0056802481,-1.15063606,,,,,,
3390BP56,,"Stevenholme Crescent",,52.9986073549,-1.1635742275,,,,,,
3390BP57,,"Stevenholme Crescent",,52.9980593692,-1.1598001748,,,,,,
3390BP67,,"Hillington Rise",,53.0041080552,-1.1470009569,,,,,,
3390BP68,,"Hartcroft Road",,52.9945451491,-1.1573504442,,,,,,
3390BR01,,"Coleby Rd Bottom",,52.978544838,-1.209863104,,,,,,
3390BR02,,"Beckley Road",,52.9784451766,-1.2124563655,,,,,,
3390BR03,,"Coleby Road Top",,52.9782877468,-1.215840006,,,,,,
3390BR04,,"Whitwell Road",,52.9770295117,-1.2172478138,,,,,,
3390BR05,,"Withern Road",,52.9742816204,-1.2176846409,,,,,,
3390BR06,,"Whitwell Road",,52.9771380581,-1.2173501032,,,,,,
3390BR07,,"Denton Green",,52.9780475481,-1.2175868593,,,,,,
3390BR08,,"Coleby Road Top",,52.9784199203,-1.2154354936,,,,,,
3390BR09,,"Beckley Road",,52.9785180694,-1.2126039743,,,,,,
3390BR10,,"Coleby Rd Bottom",,52.9786738225,-1.2089820389,,,,,,
3390BR11,,"Westleigh Road",,52.9779685219,-1.2247370141,,,,,,
3390BR12,,"Frinton Road",,52.9781544376,-1.2215465331,,,,,,
3390BR13,,"Denton Green",,52.9782952279,-1.2183419449,,,,,,
3390BR14,,"Frinton Road",,52.978047357,-1.2216676027,,,,,,
3390BR15,,"Westleigh Road",,52.9776419671,-1.2256662272,,,,,,
3390BT03,,"Boots, D82 Green Stop C",,52.9279080333,-1.1873256892,,,,,,
3390BT06,,"Boots, B Road",,52.9252627072,-1.1896064806,,,,,,
3390BT07,,"Boots, D90",,52.9266332653,-1.1849545851,,,,,,
3390BT10,,"Boots, Fifth Avenue",,52.9256123637,-1.1855241374,,,,,,
3390BU01,,"Bulwell Bus Station",,52.9998457403,-1.1971812974,,,,,,
3390BU02,,"Bulwell Bus Station",,52.9998564377,-1.1974344115,,,,,,
3390BU03,,"Bulwell Bus Station",,52.9998759219,-1.1976575615,,,,,,
3390BU04,,"Bulwell Bus Station",,52.9997288926,-1.1971834642,,,,,,
3390BU05,,"Bulwell Bus Station",,52.9997485784,-1.197436411,,,,,,
3390BU06,,"Bulwell Bus Station",,52.9997596772,-1.1977491201,,,,,,
3390BU07,,"Bulwell Bus Station",,52.9996300215,-1.1971852976,,,,,,
3390BU10,,"Bulwell Market",,53.0005989455,-1.1968991117,,,,,,
3390BU11,,"Vernon Rd, Basford Crossing",,52.985062225,-1.1819489464,,,,,,
3390BU111,,"Acton Avenue",,52.9874038983,-1.1839008454,,,,,,
3390BU12,,"Acton Avenue",,52.9875674244,-1.184151005,,,,,,
3390BU13,,"Catchems Corner",,52.9896592386,-1.1850650231,,,,,,
3390BU14,,"Bedford Grove",,52.9921026833,-1.1874474285,,,,,,
3390BU15,,"Highbury Hospital",,52.9934285911,-1.1894189523,,,,,,
3390BU16,,Piccadilly,,52.9944319718,-1.1902345066,,,,,,
3390BU17,,"Deptford Crescent",,52.9968235066,-1.1929313244,,,,,,
3390BU18,,"Cantrell Road",,52.9977538461,-1.1935844831,,,,,,
3390BU19,,"Bulwell Church",,52.9999748518,-1.1950033892,,,,,,
3390BU20,,"Duke Street",,53.0023827476,-1.1974769846,,,,,,
3390BU21,,"Merchant Street",,53.0036885212,-1.1951578591,,,,,,
3390BU22,,"Squires Avenue",,53.0060661771,-1.1931613701,,,,,,
3390BU23,,"Ludford Road",,53.007794338,-1.1921604277,,,,,,
3390BU24,,"Hucknall La, Morrisons",,53.0090325919,-1.1918243323,,,,,,
3390BU25,,"Ventura Drive",,53.0112181271,-1.1906656676,,,,,,
3390BU26,,"Hucknall La, Lawton Dr",,53.0125257455,-1.1899555762,,,,,,
3390BU27,,"Bestwood Road",,53.0113820033,-1.185699332,,,,,,
3390BU28,,"Bestwood Road",,53.011338694,-1.1859386222,,,,,,
3390BU29,,"Lawton Drive",,53.0123720319,-1.1898243081,,,,,,
3390BU30,,"Ventura Drive",,53.0109652394,-1.1904915423,,,,,,
3390BU31,,"Hucknall La, Morrisons",,53.0094232135,-1.1911016439,,,,,,
3390BU33,,"Squires Avenue",,53.0067803847,-1.1924327061,,,,,,
3390BU34,,"Merchant Street",,53.003383928,-1.195312542,,,,,,
3390BU35,,"Duke Street",,53.0024338619,-1.1970587915,,,,,,
3390BU36,,"Bulwell Church",,52.9997085426,-1.1941739024,,,,,,
3390BU37,,"Cantrell Road",,52.9980941884,-1.1933993423,,,,,,
3390BU38,,"Deptford Crescent",,52.9962325932,-1.1919589723,,,,,,
3390BU39,,Piccadilly,,52.9949098714,-1.190449055,,,,,,
3390BU40,,"Highbury Hospital",,52.9929270236,-1.1883705573,,,,,,
3390BU41,,"Bedford Grove",,52.9920192442,-1.1870765429,,,,,,
3390BU42,,"Catchems Corner",,52.9906949304,-1.1853434859,,,,,,
3390BU43,,"Gordon Street",,52.9885489847,-1.1844006586,,,,,,
3390BU44,,"St Albans Rd, Kersall Drive",,52.9959860039,-1.1808784084,,,,,,
3390BU45,,"Sellers Wood Road",,52.9975986695,-1.1972229642,,,,,,
3390BU46,,"Coventry Court",,52.9961052062,-1.1970420618,,,,,,
3390BU47,,Glenn's,,52.9940246476,-1.197780883,,,,,,
3390BU48,,"Leonard Street",,52.9920665055,-1.1980108325,,,,,,
3390BU49,,Headstocks,,52.9896110694,-1.2004845479,,,,,,
3390BU50,,Headstocks,,52.9901842178,-1.2001611214,,,,,,
3390BU51,,"Leonard Street",,52.9931183369,-1.1980211493,,,,,,
3390BU52,,"Coventry Court",,52.9951210181,-1.1977307725,,,,,,
3390BU53,,"Sellers Wood Road",,52.9972945758,-1.1974521003,,,,,,
3390BU54,,"St Albans Rd, Kersall Drive",,52.9959938635,-1.180714366,,,,,,
3390BU55,,Piccadilly,,52.9979764339,-1.1827330645,,,,,,
3390BU56,,"Logan Street",,53.0002380143,-1.1848062961,,,,,,
3390BU57,,"Cantrell Road",,53.0020743601,-1.1864853895,,,,,,
3390BU58,,"Bancroft Street",,53.0038266345,-1.1877042355,,,,,,
3390BU59,,"Bestwood Road",,53.0050565081,-1.1900953663,,,,,,
3390BU60,,"Carey Road",,53.0052387515,-1.1931022809,,,,,,
3390BU61,,"Carey Road",,53.0053429708,-1.1925638433,,,,,,
3390BU62,,"Bestwood Road",,53.0049703358,-1.1893220483,,,,,,
3390BU63,,"Bancroft Street",,53.0032293384,-1.1871193676,,,,,,
3390BU64,,"Cantrell Road",,53.0019644627,-1.1861894253,,,,,,
3390BU65,,"Logan Street",,52.9993320372,-1.1837803155,,,,,,
3390BU66,,Piccadilly,,52.9978574366,-1.1824224094,,,,,,
3390BU67,,"Hazel Street",,53.0036238335,-1.1975582896,,,,,,
3390BU68,,"Latham Street",,53.0045380785,-1.1984950914,,,,,,
3390BU69,,"Rock Street",,53.0064022649,-1.1989970785,,,,,,
3390BU70,,"Rock Street",,53.0068771382,-1.1987647428,,,,,,
3390BU71,,"Latham Street",,53.0046898752,-1.1983432566,,,,,,
3390BU72,,"Hazel Street",,53.0038588352,-1.1977476607,,,,,,
3390BU73,,"Crabtree Rd East",,52.9971545255,-1.1993469717,,,,,,
3390BU83,,"Bulwell, Morrisons Car Pk",,53.0089679206,-1.1902457284,,,,,,
3390BUT1,,"Duke Street",,53.0025074776,-1.1973107541,,,,,,
3390BW01,,"Hucknall Rd, Top Valley Way",,53.0028330971,-1.1804657144,,,,,,
3390BW02,,"Gala Way",,52.997465831,-1.1790773197,,,,,,
3390BW06,,"Gainsford Crescent",,52.9925354448,-1.1719898381,,,,,,
3390BW07,,"Teviot Road",,52.9944417127,-1.1759462907,,,,,,
3390BW08,,"Eardley Road",,52.9963982222,-1.1780843912,,,,,,
3390BW09,,"Gala Bingo",,52.9976806779,-1.1763465444,,,,,,
3390BW10,,"Southglade Leisure Centre",,52.9985257545,-1.1724712889,,,,,,
3390BW11,,"Morrell Bank",,52.9991739004,-1.1687337674,,,,,,
3390BW12,,"Morrell Bank",,52.9988040418,-1.1711249335,,,,,,
3390BW13,,"Southglade Leisure Centre",,52.9985144856,-1.1721436976,,,,,,
3390BW14,,"Gala Bingo",,52.9974870617,-1.1769462255,,,,,,
3390BW15,,"Eardley Road",,52.9962710484,-1.1778931115,,,,,,
3390BW16,,"Teviot Road",,52.9939211204,-1.1747643006,,,,,,
3390BW17,,"Gainsford Crescent",,52.9923780802,-1.1713373267,,,,,,
3390BW18,,"Riber Crescent",,52.9925667832,-1.1739111135,,,,,,
3390BW19,,"Gorse Court",,52.9947446939,-1.1781604754,,,,,,
3390BW20,,"Gorse Court",,52.9940237014,-1.1765948921,,,,,,
3390BW21,,"Riber Crescent",,52.9924462103,-1.173377078,,,,,,
3390BW22,,"Gainsford Close",,52.9936097318,-1.1700622733,,,,,,
3390BW23,,"Pavior Road",,52.9950583821,-1.1663991226,,,,,,
3390BW24,,"Carnwood Road",,52.9942211858,-1.1623925554,,,,,,
3390BW25,,"Arnold Rd, Landcroft Cres",,52.9945168955,-1.1584386167,,,,,,
3390BW26,,"Arnold Rd, Landcroft Cres",,52.9941183259,-1.1592806959,,,,,,
3390BW27,,"Carnwood Road",,52.9940760104,-1.1622016794,,,,,,
3390BW28,,"Pavior Road",,52.9949324264,-1.1676679687,,,,,,
3390BW29,,"Gainsford Close",,52.9933129123,-1.1700381652,,,,,,
3390BW30,,"Rigley Drive",,52.9999044205,-1.1794333998,,,,,,
3390C1,,"Broad Marsh, Collin St C1",,52.9496809902,-1.1500959593,,,,,,
3390C2,,"Broad Marsh, Collin St C2",,52.9496311532,-1.149412294,,,,,,
3390C3,,"Broad Marsh, Collin St C3",,52.9496565207,-1.1491885436,,,,,,
3390C4,,"Broad Marsh, Collin St C4",,52.94967258,-1.148920325,,,,,,
3390C9,,"Broad Marsh, Maid Marian Way C9",,52.9494598998,-1.1506063294,,,,,,
3390CA10,,"Brentcliffe Avenue",,52.9647102505,-1.1154232652,,,,,,
3390CA11,,"Comery Avenue",,52.9631507786,-1.1184773923,,,,,,
3390CA12,,"Porchester Road",,52.9626198712,-1.1196196773,,,,,,
3390CA13,,"Comery Avenue",,52.963844898,-1.1175253053,,,,,,
3390CC04,,"Derby Rd, Canning Circus",,52.9551992635,-1.1638610181,,,,,,
3390CC05,,"Derby Rd, Canning Circus",,52.9553168437,-1.1639629491,,,,,,
3390CC06,,"Ilkeston Rd, Canning Circus",,52.9559111163,-1.1641003477,,,,,,
3390CC07,,"Ilkeston Rd, Canning Circus",,52.9559950315,-1.1632502457,,,,,,
3390CC08,,"Alfreton Rd, Canning Circus",,52.9568249895,-1.1636659227,,,,,,
3390CC11,,"Alfreton Rd, Canning Circus",,52.956658697,-1.1630290357,,,,,,
3390CI01,,"Cinderhill Rd, Phoenix Pk",,52.9878557698,-1.2028110272,,,,,,
3390CI02,,"Broxtowe Lane",,52.9806786179,-1.1942747128,,,,,,
3390CI03,,"Llanberis Grove",,52.9792843207,-1.1928112768,,,,,,
3390CI04,,"Bar Lane",,52.9781362325,-1.1918646037,,,,,,
3390CI05,,"Llanberis Grove",,52.979548821,-1.1933723115,,,,,,
3390CI06,,"Mill Street",,52.9832515682,-1.1879560496,,,,,,
3390CI07,,"Basford Hall College",,52.9829099301,-1.1919096058,,,,,,
3390CI08,,"Nuthall Road",,52.9821530023,-1.1942919747,,,,,,
3390CI09,,"Broxtowe Lane",,52.9828391183,-1.1960517047,,,,,,
3390CI10,,"Basford Hall College",,52.9843117099,-1.1984672179,,,,,,
3390CI11,,"Nuthall Rd, Cinderhill Island",,52.9859273769,-1.2021166179,,,,,,
3390CI12,,"Nuthall Rd, Cinderhill Island",,52.9860422262,-1.2018165827,,,,,,
3390CI13,,"Basford Hall College",,52.9842709366,-1.1977529945,,,,,,
3390CI14,,"Nuthall Road",,52.9822884322,-1.194378824,,,,,,
3390CI15,,"Basford Hall College",,52.9833532344,-1.1896819715,,,,,,
3390CI16,,"Mill Street",,52.9840321252,-1.1877328828,,,,,,
3390CI17,,"Greenwich Avenue",,52.985536918,-1.1908923694,,,,,,
3390CI18,,"Christina Avenue",,52.9870655555,-1.1949305145,,,,,,
3390CI19,,"Sycamore Rise",,52.9873749585,-1.1968166118,,,,,,
3390CI20,,"Bagnall Rd, Tricornia Dr",,52.9887955097,-1.1995164061,,,,,,
3390CI21,,"Bagnall Rd, Tricornia Dr",,52.9884840899,-1.1986581463,,,,,,
3390CI22,,"Sycamore Rise",,52.9874080946,-1.1963988966,,,,,,
3390CI23,,"Christina Avenue",,52.9870445535,-1.194484015,,,,,,
3390CI24,,"Greenwich Avenue",,52.9855263083,-1.1906542345,,,,,,
3390CI25,,"Mill Street",,52.984011198,-1.1873013117,,,,,,
3390CI40,,"Broxtowe Lane",,52.9811960945,-1.1950246988,,,,,,
3390CK01,,"Racecourse Road",,52.9503264311,-1.115344579,,,,,,
3390CK02,,"Greyhound Stadium",,52.9506463756,-1.108833785,,,,,,
3390CK03,,"Candle Meadow",,52.9545626921,-1.0976935502,,,,,,
3390CK12,,"Candle Meadow",,52.954723293,-1.0963505291,,,,,,
3390CK13,,"Greyhound Stadium",,52.9504865965,-1.1091049776,,,,,,
3390CK14,,"Racecourse Road",,52.9502473091,-1.1155843332,,,,,,
3390CK23,,"Rectory Road",,52.9547833588,-1.0924344308,,,,,,
3390CK27,,"Racecourse Park and Ride",,52.9495310414,-1.1147654624,,,,,,
3390CK28,,"Racecourse Park and Ride",,52.9499280806,-1.1137601532,,,,,,
3390CL01,,"Clifton Lane, Fabis Drive",,52.9160510317,-1.175605414,,,,,,
3390CL02,,"Orford Avenue",,52.9142367335,-1.1745393756,,,,,,
3390CL03,,"Farnborough Rd Co-op",,52.9126259311,-1.1717147976,,,,,,
3390CL04,,"Dovenby Road",,52.9099836643,-1.1718097962,,,,,,
3390CL05,,Rivergreen,,52.906535148,-1.1748938949,,,,,,
3390CL06,,"Sthchurch Dr, Clifton Library",,52.9031172545,-1.1772186759,,,,,,
3390CL08,,"Southchurch Dr, Peacock",,52.9014630419,-1.1784988287,,,,,,
3390CL09,,"Dungannon Road",,52.8992179398,-1.1801319601,,,,,,
3390CL10,,"Southchurch Dr, Holy Trinity",,52.897638545,-1.1805334015,,,,,,
3390CL100,,"The Fairham",,52.9003084135,-1.1701656386,,,,,,
3390CL101,,"Dungannon Road",,52.9011451142,-1.1728405624,,,,,,
3390CL102,,"Wheatacre Road",,52.9015703516,-1.1758207371,,,,,,
3390CL103,,"Green Lane, Peacock",,52.9018919516,-1.176825601,,,,,,
3390CL104,,"Green Lane, Peacock",,52.9018676631,-1.1772126062,,,,,,
3390CL105,,"Scafell Way",,52.8939705715,-1.1857307866,,,,,,
3390CL106,,"Summerwood La, Manesty Cres",,52.8928921794,-1.1818566131,,,,,,
3390CL106a,,"Summerwood La, Manesty Cres",,52.892972768,-1.1818105038,,,,,,
3390CL107,,"Swansdowne Drive",,52.9050228178,-1.1758890523,,,,,,
3390CL11,,"Highbank Drive",,52.8967282983,-1.1828101004,,,,,,
3390CL113,,"Lark Hill Village",,52.8978796232,-1.1921092681,,,,,,
3390CL12,,"Pastures Avenue",,52.8967675981,-1.1859162223,,,,,,
3390CL13,,"Bransdale Road",,52.8971277986,-1.1899528856,,,,,,
3390CL15,,"Todd Close",,52.8997643539,-1.1943041821,,,,,,
3390CL16,,"Krebs Close",,52.9014631664,-1.1942726798,,,,,,
3390CL17,,"Nobel Rd, Fleming Gdns",,52.9028337594,-1.1922401585,,,,,,
3390CL18,,"The Crusader",,52.9049309823,-1.1913090747,,,,,,
3390CL19,,"Myrtus Close",,52.9054983629,-1.1941086295,,,,,,
3390CL20,,"Lilac Court",,52.9043337686,-1.19603333,,,,,,
3390CL21,,"Clifton, Hartness Rd",,52.9033037191,-1.1965876247,,,,,,
3390CL22,,"Lilac Court",,52.9046661392,-1.1959974429,,,,,,
3390CL23,,"Myrtus Close",,52.9055987475,-1.1943297929,,,,,,
3390CL24,,"The Crusader",,52.9052407346,-1.191912907,,,,,,
3390CL25,,"Nobel Rd, Fleming Gdns",,52.9027606394,-1.1920631091,,,,,,
3390CL26,,"Krebs Close",,52.9015964807,-1.1940472025,,,,,,
3390CL27,,"Todd Close",,52.8999720955,-1.1944489945,,,,,,
3390CL28,,"Harden Court",,52.8996781164,-1.1921947594,,,,,,
3390CL29,,"Bransdale Road",,52.8972256579,-1.1898024063,,,,,,
3390CL30,,"Pastures Avenue",,52.8968598478,-1.1849482435,,,,,,
3390CL31,,"Southchurch Dr, Holy Trinity",,52.8976942177,-1.1807850682,,,,,,
3390CL32,,"Dungannon Road",,52.9002214599,-1.1796521614,,,,,,
3390CL33,,"Sthchurch Dr, Clifton Library",,52.9031109416,-1.1776053516,,,,,,
3390CL34,,"Clifton Leisure Centre",,52.9055169724,-1.1758499411,,,,,,
3390CL35,,Rivergreen,,52.9075208748,-1.1744439685,,,,,,
3390CL36,,"Varney Road",,52.909469691,-1.1728753468,,,,,,
3390CL37,,"Dovenby Road",,52.9104201553,-1.1712364113,,,,,,
3390CL38,,"Southchurch Drive",,52.9116267362,-1.1702319367,,,,,,
3390CL39,,"Farnborough Rd Co-op",,52.9127371066,-1.1721885443,,,,,,
3390CL40,,"Orford Avenue",,52.9155660728,-1.1756741078,,,,,,
3390CL41,,"Clifton Lane, Fabis Drive",,52.9162607545,-1.1760327218,,,,,,
3390CL42,,"Nobel Road Turn Round",,52.8995825706,-1.1913640219,,,,,,
3390CL43,,"Southchurch Drive",,52.9096869075,-1.1679344367,,,,,,
3390CL44,,"Farnborough School",,52.9086587991,-1.1674634395,,,,,,
3390CL45,,"Clifton Sports Centre",,52.9061824171,-1.1668566823,,,,,,
3390CL46,,"Farnboro' Rd, Central College",,52.902721899,-1.1669230455,,,,,,
3390CL47,,"The Fairham",,52.9008611704,-1.1682224,,,,,,
3390CL48,,"Farnborough Rd, Dunkery Rd",,52.8980198024,-1.1706999173,,,,,,
3390CL49,,"Fairham School",,52.8967592027,-1.174276799,,,,,,
3390CL50,,"Glencoyne Road",,52.8966918216,-1.1762254398,,,,,,
3390CL51,,"Farnboro' Rd, Holy Trinity",,52.8969790082,-1.1800552796,,,,,,
3390CL52,,"Glencoyne Road",,52.8968119671,-1.1766988545,,,,,,
3390CL53,,"Fairham School",,52.8970844349,-1.1732151697,,,,,,
3390CL54,,"Dunkery Road",,52.8984759269,-1.1703641609,,,,,,
3390CL55,,"The Fairham",,52.9005319293,-1.1687044363,,,,,,
3390CL56,,"Farnboro' Rd, Central College",,52.9033060382,-1.1668969767,,,,,,
3390CL57,,"Clifton Sports Centre",,52.9064177818,-1.1670900671,,,,,,
3390CL58,,"Farnborough School",,52.9089303242,-1.1677258869,,,,,,
3390CL59,,"Varney Road",,52.9092184306,-1.1729396101,,,,,,
3390CL60,,Greencroft,,52.9134665221,-1.1749555348,,,,,,
3390CL60a,,Greencroft,,52.9135109478,-1.1748803353,,,,,,
3390CL61,,"Brinkhill Crescent",,52.9126610844,-1.1741826827,,,,,,
3390CL62,,"Woodbridge Avenue",,52.9118908628,-1.1758925709,,,,,,
3390CL63,,"Sunninghill Drive",,52.9110441802,-1.1769495545,,,,,,
3390CL64,,"Sunninghill Drive Shops",,52.9103811074,-1.1798617755,,,,,,
3390CL65,,"Sunninghill Drive",,52.9108229708,-1.1774593327,,,,,,
3390CL66,,"Sunninghill Drive Shops",,52.9103252273,-1.1795803004,,,,,,
3390CL67,,"Rivergreen Roundabout",,52.9094214024,-1.1801772907,,,,,,
3390CL67a,,"Rivergreen Roundabout",,52.909456843,-1.1801022732,,,,,,
3390CL68,,"Woodsford Grove",,52.9082690374,-1.1773292643,,,,,,
3390CL69,,"Green Lane, Dalehead Road",,52.90667608,-1.1862063436,,,,,,
3390CL70,,"Langstrath Road",,52.9047149035,-1.1833735419,,,,,,
3390CL71,,"Whitegate Vale",,52.9031804182,-1.181157384,,,,,,
3390CL73,,Morrisons,,52.9023044061,-1.1792708849,,,,,,
3390CL74,,"Whitegate Vale",,52.9033091232,-1.1815712512,,,,,,
3390CL75,,"Langstrath Road",,52.9046263475,-1.1835684913,,,,,,
3390CL76,,"Green Lane, Dalehead Road",,52.9063790555,-1.1861524334,,,,,,
3390CL77,,"Winscombe Mount",,52.8957506853,-1.1857568923,,,,,,
3390CL77a,,"Winscombe Mount",,52.8957499723,-1.1856528505,,,,,,
3390CL78,,"Pastures Avenue South",,52.8934183046,-1.1851614294,,,,,,
3390CL78a,,"Pastures Avenue South",,52.8934810197,-1.1851305251,,,,,,
3390CL79,,"Thistledown Road",,52.8931554066,-1.1835313044,,,,,,
3390CL79a,,"Thistledown Road",,52.8932270076,-1.1834853668,,,,,,
3390CL80,,"Clarewood Grove",,52.8925428009,-1.1794255068,,,,,,
3390CL80a,,"Clarewood Grove",,52.8926235939,-1.1794091175,,,,,,
3390CL81,,"Breckswood Drive",,52.8940473936,-1.1747147997,,,,,,
3390CL81a,,"Breckswood Drive",,52.8940752878,-1.1748480501,,,,,,
3390CL82,,"Fairham School",,52.8965540168,-1.1732103962,,,,,,
3390CL82a,,"Fairham School",,52.8965459591,-1.1733443372,,,,,,
3390CL83,,"Clifton Lane, Nottm Trent Uni",,52.9112641533,-1.1814659668,,,,,,
3390CL84,,"Clifton Green",,52.907952127,-1.1861378297,,,,,,
3390CL85,,"Crusader Island",,52.905238862,-1.1889987635,,,,,,
3390CL86,,"Clifton Lane, The Dip",,52.901295311,-1.1907374693,,,,,,
3390CL87,,"Clifton Pastures",,52.8968192799,-1.1908505592,,,,,,
3390CL88,,"The Farm House",,52.8951017948,-1.1921014501,,,,,,
3390CL89,,"Clifton Pastures",,52.8976284405,-1.1908652234,,,,,,
3390CL90,,"Clifton Lane, The Dip",,52.9014677104,-1.1909721296,,,,,,
3390CL91,,"Clifton La, Crusader Island",,52.9058506823,-1.1890765523,,,,,,
3390CL92,,"Clifton Lane, Clifton Green",,52.9081688666,-1.1862824614,,,,,,
3390CL93,,"Clifton Lane, Nottm Trent Uni",,52.9110985943,-1.1822274709,,,,,,
3390CL94,,"Woodsford Grove",,52.9080510517,-1.1770062697,,,,,,
3390CL96,,"Southchurch Dr, Peacock",,52.9016166666,-1.1786148602,,,,,,
3390CL97,,"NTU Clifton Campus",,52.9127793279,-1.1834895871,,,,,,
3390CL98,,"Dungannon Road",,52.9012526643,-1.1727939141,,,,,,
3390CL99,,"The Fairham",,52.9005264178,-1.1704885415,,,,,,
3390E1,,"City, Elite E1",,52.9550004361,-1.1497684211,,,,,,
3390E2,,"City, Elite E2",,52.9549759188,-1.1501112649,,,,,,
3390FF01,,"Sherwood Rise, Gregory Blvd",,52.9686196559,-1.1560975592,,,,,,
3390FF02,,"Berridge Road",,52.9708384456,-1.1584070995,,,,,,
3390FF03,,"Beech Avenue",,52.9715607703,-1.1588546944,,,,,,
3390FF04,,"Berridge Road",,52.9703039232,-1.1578218551,,,,,,
3390FF05,,"Sherwood Rise, Gregory Blvd",,52.9685991431,-1.155740598,,,,,,
3390FO01,,"Woodborough Road",,52.960568944,-1.1503291452,,,,,,
3390FO02,,"Huntingdon Street",,52.9627892973,-1.1515808855,,,,,,
3390FO04,,"ncn Clarendon College",,52.9687481274,-1.1539359962,,,,,,
3390FO06,,"ncn Clarendon College",,52.9687187259,-1.1535940985,,,,,,
3390FO07,,"Forest Recreation Ground",,52.9663615834,-1.1533274536,,,,,,
3390FO08,,"Forest Road",,52.964214004,-1.1521932075,,,,,,
3390FO09,,"Huntingdon Street",,52.9623453677,-1.1510982736,,,,,,
3390FO10,,"Woodborough Road",,52.9601517611,-1.1498162717,,,,,,
3390FO11,,"Woodborough Road",,52.9600725697,-1.1500560183,,,,,,
3390FO12,,"Huntingdon Street",,52.9628885927,-1.1516384945,,,,,,
3390FO14,,"Frogmore Street",,52.9613992645,-1.1507892735,,,,,,
3390FO15,,"Forest Recreation Ground",,52.9669130449,-1.153763365,,,,,,
3390FO31,,"ncn Clarendon College",,52.9688919391,-1.1539331888,,,,,,
3390FO34,,"Forest Road",,52.9641795369,-1.1524023208,,,,,,
3390G1,,"City, S Sherwood St G1",,52.956431744,-1.1513033699,,,,,,
3390G2,,"City, S Sherwood St G2",,52.9568456281,-1.1513548127,,,,,,
3390G3,,"City, S Sherwood St G3",,52.956538009,-1.1510780016,,,,,,
3390GR02,,"Thorneywood Mt Top",,52.9694797065,-1.1197334698,,,,,,
3390GR03,,"Wheatfields Road",,52.96732504,-1.1225467017,,,,,,
3390GR04,,"Thirlmere Close",,52.9645564809,-1.1250147108,,,,,,
3390GR05,,"Edginton Street",,52.963593969,-1.1261507648,,,,,,
3390GR06,,"Dowson Street",,52.9620205416,-1.1285645294,,,,,,
3390GR07,,"Ridgway Street",,52.9609327526,-1.131013045,,,,,,
3390GR08,,"Beacon Hill Rise, Nugent Gdns",,52.9609135424,-1.1345417465,,,,,,
3390GR09,,"Hawkridge Gardens",,52.9584391763,-1.1367050305,,,,,,
3390GR10,,"Roden Street",,52.9566550601,-1.1373657627,,,,,,
3390GR11,,"Roden Street",,52.9558493598,-1.1378283617,,,,,,
3390GR12,,"Hawkridge Gardens",,52.9573376241,-1.1372777519,,,,,,
3390GR13,,"Kelvedon Gardens",,52.9592837434,-1.1366435529,,,,,,
3390GR14,,"Beacon Hill Rise, Nugent Gdns",,52.9610748965,-1.1344789755,,,,,,
3390GR15,,"Ridgway Street",,52.9612966975,-1.1303804729,,,,,,
3390GR16,,"Dowson Street",,52.9628085551,-1.1281467106,,,,,,
3390GR17,,"Edginton Street",,52.9638721647,-1.1260856029,,,,,,
3390GR18,,"Thirlmere Close",,52.9660845778,-1.1237778387,,,,,,
3390GR19,,"Wheatfields Road",,52.9677181016,-1.1222111694,,,,,,
3390GR20,,"Thorneywood Mt Top",,52.9682852057,-1.121097827,,,,,,
3390GR28,,"Victoria Leisure Centre",,52.955904007,-1.1391669867,,,,,,
3390GR29,,"Cowan Street",,52.9564726222,-1.1419691287,,,,,,
3390GR30,,"Cowan Street",,52.9565698812,-1.1417439154,,,,,,
3390GR31,,"Victoria Leisure Centre",,52.9556827916,-1.1384122124,,,,,,
3390H1,,"Fletcher Gate H1",,52.9525719864,-1.1458269796,,,,,,
3390H2,,"George Street",,52.953806158,-1.144939342,,,,,,
3390H3,,Pryzm,,52.955191515,-1.1438253875,,,,,,
3390H4,,Pryzm,,52.9559038353,-1.1441239218,,,,,,
3390H6,,"Lwr Parliament St, Boston St",,52.9543656795,-1.1402543715,,,,,,
3390H7,,Hockley,,52.9536300443,-1.1404624601,,,,,,
3390H8,,"City, George Street H8",,52.9550335864,-1.1456147513,,,,,,
3390HV01,,"Hempshill Va, Armstrong Rd",,52.9958145207,-1.2154481342,,,,,,
3390HV02,,"Meadow Rise",,52.9968514927,-1.2132092912,,,,,,
3390HV03,,"Irwin Drive",,52.9977176316,-1.2096175547,,,,,,
3390HV04,,"Northern Cemetery",,52.9978421052,-1.2067097758,,,,,,
3390HV05,,"Crabtree Rd, Clayfield Close",,52.9966272297,-1.2051675747,,,,,,
3390HV06,,"Courtleet Way",,52.9955340795,-1.2030123518,,,,,,
3390HV07,,"Crabtree Rd East",,52.9968121988,-1.2005750764,,,,,,
3390HV08,,"Courtleet Way",,52.9954011512,-1.2032978833,,,,,,
3390HV09,,"Crabtree Rd, Clayfield Close",,52.9971224823,-1.2052925811,,,,,,
3390HV10,,"Northern Cemetery",,52.9976838914,-1.207249074,,,,,,
3390HV11,,"Irwin Drive",,52.9975845885,-1.2098881824,,,,,,
3390HV12,,"Meadow Rise",,52.9965832225,-1.2134227604,,,,,,
3390HV13,,"Hempshill Vale, Armstrong Rd",,52.9956525343,-1.2154212707,,,,,,
3390J1,,"City, Victoria Centre J1",,52.957662701,-1.1487039494,,,,,,
3390J3,,"City, Victoria Centre J3",,52.9562033022,-1.1482711431,,,,,,
3390J4,,"City, Victoria Centre J4",,52.9559961463,-1.1482156694,,,,,,
3390J5,,"City, Victoria Centre J5",,52.9556985747,-1.1480875445,,,,,,
3390J6,,"City, Victoria Centre J6",,52.9555362532,-1.1480163058,,,,,,
3390K1,,"City, King Street K1",,52.9548001399,-1.1494151014,,,,,,
3390K2,,"City, King Street K2",,52.9546023985,-1.1494189801,,,,,,
3390K3,,"City, King Street K3",,52.9544498114,-1.1494517435,,,,,,
3390LE01,,"Hillside for Gatehouse Lodge",,52.9471214896,-1.1851203125,,,,,,
3390LE02,,"Triumph Road",,52.9478324849,-1.1826215164,,,,,,
3390LE03,,"Faraday Road",,52.9499392812,-1.1778785966,,,,,,
3390LE04,,"Savoy Cinema",,52.951751031,-1.1733938704,,,,,,
3390LE05,,"Harrington Drive",,52.9529911527,-1.1707505342,,,,,,
3390LE06,,"Seely Road",,52.9545327536,-1.1675207402,,,,,,
3390LE07,,"Seely Road",,52.9544510253,-1.167403228,,,,,,
3390LE08,,"Harrington Drive",,52.95311377,-1.1702867641,,,,,,
3390LE09,,"Savoy Cinema",,52.9517289141,-1.1727989234,,,,,,
3390LE10,,"Lenton Boulevard",,52.950759737,-1.1756304623,,,,,,
3390LE11,,"Faraday Road",,52.9493574071,-1.1782319443,,,,,,
3390LE12,,"Hillside for Gatehouse Lodge",,52.9471746077,-1.1836905812,,,,,,
3390LI01,,"Showcase Cinema",,52.9350786243,-1.1725509705,,,,,,
3390LI02,,"Clifton Blvd, Clifton Br North",,52.9307270637,-1.1698816891,,,,,,
3390LI03,,"Clifton Blvd, Clifton Br North",,52.9301462495,-1.1703837328,,,,,,
3390LI04,,"Showcase Cinema",,52.9341067459,-1.1724058421,,,,,,
3390LI05,,"Queens Dr, Clifton Br North",,52.9299657667,-1.1664299666,,,,,,
3390LI06,,"Tottle Road",,52.9334803631,-1.1612741964,,,,,,
3390LI07,,"Pork Farms",,52.9353622351,-1.1604343784,,,,,,
3390LI08,,"Queens Dr, Clifton Br North",,52.9295549112,-1.1668097726,,,,,,
3390LI09,,"Queens Drive P+R (in)",,52.9286837899,-1.1656512659,,,,,,
3390LI12,,"Queens Drive P+R (out)",,52.9287103372,-1.1655912503,,,,,,
3390LI19,,"Tottle Road",,52.933612458,-1.1608848151,,,,,,
3390LI20,,"Pork Farms",,52.9350695076,-1.1609905468,,,,,,
3390LI35,,"Electric Av, Experian",,52.9331766933,-1.1641068585,,,,,,
3390LI36,,"B & Q Warehouse",,52.9316477392,-1.1640024111,,,,,,
3390LI37,,"Electric Av, Experian",,52.9335261912,-1.1639513468,,,,,,
3390LI38,,"Bull Close Road",,52.9279528448,-1.1729694622,,,,,,
3390LI39,,"Power League",,52.9262404806,-1.1775242293,,,,,,
3390LI40,,"Power League",,52.9263481349,-1.1774924386,,,,,,
3390LI41,,"Bull Close Road",,52.9279543969,-1.1731925735,,,,,,
3390LI42,,"B & Q Warehouse",,52.9319095509,-1.1641610195,,,,,,
3390LI43,,"Riverside Farm Restaurant",,52.9339426489,-1.1618157522,,,,,,
3390M1,,"City, Maid Marian Way M1",,52.9528793235,-1.1536055895,,,,,,
3390M2,,"City, Maid Marian Way M2",,52.9522633526,-1.1529478127,,,,,,
3390M3,,"City, Maid Marian Way M3",,52.9512586545,-1.1519850873,,,,,,
3390M4,,"City, Maid Marian Way M4",,52.9511411703,-1.1518980803,,,,,,
3390M6,,"City, Maid Marian Way M6",,52.9527823595,-1.1538754047,,,,,,
3390MA03,,"Huntingdon Street",,52.9598839671,-1.1488240915,,,,,,
3390MA04,,"Woodboro' Rd, Shelton St",,52.9615323867,-1.1467818996,,,,,,
3390MA05,,"Peas Hill Road",,52.9626760391,-1.1458065582,,,,,,
3390MA06,,"Cranmer Street",,52.9652286913,-1.1445055896,,,,,,
3390MA07,,"Bowers Avenue",,52.9666716149,-1.1438964246,,,,,,
3390MA08,,"Hungerhill Road",,52.9683817135,-1.142939468,,,,,,
3390MA09,,"Alexandra Court",,52.9704931564,-1.1415426589,,,,,,
3390MA10,,"Dagmar Grove",,52.972737143,-1.1398303616,,,,,,
3390MA11,,"Malvern Road",,52.9750021296,-1.1372983939,,,,,,
3390MA12,,"Woodboro' Rd, Ransom Rd Top",,52.9777513377,-1.1358436929,,,,,,
3390MA13,,"Private Road",,52.9786159362,-1.1348285837,,,,,,
3390MA14,,"Mapperley Rise",,52.980127001,-1.1324749409,,,,,,
3390MA15,,"Belvoir Street",,52.9810289454,-1.1291950212,,,,,,
3390MA16,,"Porchester Road",,52.9814671113,-1.1276520818,,,,,,
3390MA17,,"Robinson Road",,52.982219412,-1.1248218259,,,,,,
3390MA19,,"Porchester Road",,52.981227926,-1.1281335191,,,,,,
3390MA20,,"Belvoir Street",,52.9806573286,-1.130006778,,,,,,
3390MA21,,"Mapperley Rise",,52.9794239931,-1.1334571135,,,,,,
3390MA22,,"Private Road",,52.978302975,-1.1350582341,,,,,,
3390MA23,,"Woodboro' Rd, Ransom Rd Top",,52.9768799175,-1.1359206449,,,,,,
3390MA24,,"Malvern Road",,52.9744481021,-1.1377561861,,,,,,
3390MA25,,"Dagmar Grove",,52.9728514041,-1.1394706974,,,,,,
3390MA26,,"Alexandra Court",,52.9692750588,-1.1421623978,,,,,,
3390MA27,,"Hungerhill Road",,52.9673246451,-1.1434517276,,,,,,
3390MA28,,"Cranmer Street",,52.965406206,-1.1441894183,,,,,,
3390MA29,,"Peas Hill Road",,52.963542226,-1.1450004101,,,,,,
3390MA30,,"Woodboro' Rd, Shelton St",,52.9617634096,-1.1464051606,,,,,,
3390MA31,,"Huntingdon Street",,52.9605310437,-1.1475459699,,,,,,
3390MA47,,"Maurice Drive",,52.9804635976,-1.1342554962,,,,,,
3390MA48,,"Maurice Drive",,52.9805438406,-1.1341645276,,,,,,
3390MA60,,"Gordon Rise",,52.980642166,-1.1365605271,,,,,,
3390ME01,,"Arkwright Street",,52.9460243666,-1.1466256246,,,,,,
3390ME02,,"Lammas Gardens",,52.9446867161,-1.1431249472,,,,,,
3390ME03,,"Eugene Gardens",,52.9436596224,-1.1403177545,,,,,,
3390ME04,,"Meadows Way, Ryehill St",,52.9406638482,-1.1400051067,,,,,,
3390ME05,,"Trent Bridge, Victoria Embknt",,52.9394531097,-1.1379161405,,,,,,
3390ME06,,"Trent Bridge, Victoria Embknt",,52.939358769,-1.1385429752,,,,,,
3390ME07,,"Ryehill Street",,52.9409084679,-1.1402681073,,,,,,
3390ME08,,"Eugene Gardens",,52.9430222106,-1.140434555,,,,,,
3390ME09,,"Lammas Gardens",,52.9446136462,-1.1442127621,,,,,,
3390ME10,,"Crossgate Drive",,52.9377693115,-1.1601348533,,,,,,
3390ME15,,"Traffic Street",,52.9450192212,-1.1493687934,,,,,,
3390ME16,,"Wilford Road",,52.9444727686,-1.1546774104,,,,,,
3390ME17,,"Castle Bridge Road",,52.9432819504,-1.1578852201,,,,,,
3390ME18,,"NG2 Business Park",,52.9414461527,-1.1601529597,,,,,,
3390ME19,,"Crossgate Drive",,52.9384340247,-1.160062468,,,,,,
3390ME20,,"Bridgeway Centre",,52.9432523349,-1.1474242228,,,,,,
3390ME21,,"Houseman Gardens",,52.9417207429,-1.1494632309,,,,,,
3390ME22,,"Queens Walk",,52.941741678,-1.1523943399,,,,,,
3390ME24,,"Robin Hood Way, Soudan Dr",,52.9396520913,-1.1543546944,,,,,,
3390ME25,,"Riverside Way",,52.9382049666,-1.1569124295,,,,,,
3390ME26,,"Riverside Way",,52.9383398963,-1.1569246873,,,,,,
3390ME27,,"Robin Hood Way, Soudan Dr",,52.9398514207,-1.1545740117,,,,,,
3390ME28,,"Thrumpton Drive",,52.941380803,-1.1547376577,,,,,,
3390ME29,,"Queens Walk",,52.9418174781,-1.1516785789,,,,,,
3390ME30,,"Houseman Gardens",,52.9418527985,-1.1490737398,,,,,,
3390ME31,,"Manifold Gardens",,52.9420468415,-1.1472991046,,,,,,
3390ME32,,"Bridgeway Centre",,52.94330005,-1.1478102,,,,,,
3390ME33,,"Crossgate Drive",,52.9380913131,-1.1599054272,,,,,,
3390ME36,,"Traffic Street",,52.9451847351,-1.1498864174,,,,,,
3390ME37,,"Wilford Crescent",,52.9405246362,-1.1456326575,,,,,,
3390ME38,,"Holgate Road",,52.9385630575,-1.1453736895,,,,,,
3390ME39,,"Collygate Road",,52.9382897639,-1.143623276,,,,,,
3390ME40,,"Wilford Road",,52.9446348749,-1.1547188968,,,,,,
3390ME41,,"Bunbury Street",,52.938609132,-1.141786764,,,,,,
3390ME42,,"Collygate Road",,52.9380969506,-1.1443115416,,,,,,
3390ME43,,"Holgate Road",,52.9395628929,-1.1456515963,,,,,,
3390ME44,,"Wilford Crescent",,52.9410384636,-1.1458308668,,,,,,
3390ME45,,"Portal Business Park",,52.9439526091,-1.1561161766,,,,,,
3390ME68,,"NG2 Homebase",,52.9423284762,-1.1603442128,,,,,,
3390ME71,,"Bathley St, Bunbury St",,52.9387704908,-1.1417240531,,,,,,
3390ME72,,"NG2 Business Park",,52.9414852585,-1.160598624,,,,,,
3390N1,,"Canal Street",,52.9496163227,-1.1423429141,,,,,,
3390N3,,"Belward Street, Ice Arena",,52.9528792282,-1.141057843,,,,,,
3390N6,,"Popham Street",,52.9492524358,-1.1442403011,,,,,,
3390P1,,"City, Parliament St P1",,52.9550931916,-1.150168508,,,,,,
3390P2,,"City, Parliament St P2",,52.955117709,-1.1498256632,,,,,,
3390P3,,"City, Parliament St P3",,52.9551249942,-1.1495873539,,,,,,
3390P4,,"City, Parliament St P4",,52.9551551958,-1.1487829492,,,,,,
3390P5,,"City, Parliament St P5",,52.9551705078,-1.148410513,,,,,,
3390Q1,,"City, Queen Street Q1",,52.9543730682,-1.1500337695,,,,,,
3390Q2,,"City, Queen Street Q2",,52.9545991573,-1.1502228458,,,,,,
3390Q3,,"City, Queen Street Q3",,52.9547712103,-1.1503980975,,,,,,
3390QM01,,"University East Entrance",,52.9409778628,-1.1845660862,,,,,,
3390QM02,,"Derby Rd, QMC Main Entrance",,52.9449448873,-1.1888965505,,,,,,
3390QM03,,QMC,,52.9460551149,-1.1869262158,,,,,,
3390QM04,,"Derby Rd, QMC Main Entrance",,52.945046348,-1.1879570934,,,,,,
3390QM05,,"QMC Derby Road",,52.9437435949,-1.1893803367,,,,,,
3390QM06,,"Medical School",,52.9427706701,-1.1877615927,,,,,,
3390QM07,,Dunkirk,,52.9409309787,-1.1829747541,,,,,,
3390QM08,,"QMC Forecourt",,52.944871299,-1.1873353328,,,,,,
3390RA01,,"Highurst Street",,52.9560456214,-1.1666134388,,,,,,
3390RA02,,"Albert Grove",,52.9557912417,-1.170086676,,,,,,
3390RA03,,"Rothesay Avenue",,52.9557072077,-1.1722169227,,,,,,
3390RA04,,"Radford Boulevard",,52.9555468792,-1.1763135026,,,,,,
3390RA05,,"Middleton Street",,52.9553646354,-1.1798597034,,,,,,
3390RA06,,"Faraday Road",,52.9554340609,-1.1834160195,,,,,,
3390RA07,,"Jubilee Campus",,52.9552757866,-1.1878697406,,,,,,
3390RA10,,"Triumph Road",,52.9554527059,-1.1874496337,,,,,,
3390RA11,,"Faraday Road",,52.9554456718,-1.1811829787,,,,,,
3390RA12,,"Middleton Street",,52.9556098364,-1.1789172766,,,,,,
3390RA13,,"Radford Boulevard",,52.9557823403,-1.17397199,,,,,,
3390RA14,,"Albert Grove",,52.9559286627,-1.1704561874,,,,,,
3390RA15,,"Highurst Street",,52.9561792765,-1.1677273012,,,,,,
3390RA19,,"Peveril Street",,52.9601528941,-1.1690504107,,,,,,
3390RA20,,"Bentinck Road",,52.9612199572,-1.169952982,,,,,,
3390RA21,,"Peveril Street",,52.9600875831,-1.1687092595,,,,,,
3390RA22,,"Boden Street",,52.9587179562,-1.1669640121,,,,,,
3390RA23,,"Newdigate Street",,52.9578170525,-1.165403372,,,,,,
3390RA24,,"Chadwick Road",,52.9649247448,-1.1804828278,,,,,,
3390RA25,,"Alfreton Rd, Gregory Blvd",,52.964337477,-1.1787519713,,,,,,
3390RA26,,"Bridlington Street",,52.9636179565,-1.1761005981,,,,,,
3390RA27,,"Player Street",,52.9627913454,-1.1735704582,,,,,,
3390RA28,,"Hartley Road",,52.9618953684,-1.1714139333,,,,,,
3390RA30,,"Player Street",,52.9629216286,-1.174208161,,,,,,
3390RA31,,"Alfreton Rd, Gregory Blvd",,52.96411133,-1.1785478173,,,,,,
3390RA32,,"Chadwick Road",,52.9653267926,-1.1814281148,,,,,,
3390RA33,,"Boden Street",,52.9582112747,-1.1664973807,,,,,,
3390RA46,,"Radford Boulevard",,52.9555315828,-1.1767008166,,,,,,
3390RA47,,"Alfreton Rd, Gregory Blvd",,52.9642035779,-1.1788885045,,,,,,
3390RA49,,"Hartley Road",,52.9619163524,-1.171845276,,,,,,
3390RA63,,"Jubilee Campus, The Exchange",,52.9539972068,-1.1875662163,,,,,,
3390RP01,,"Rise Park Bus Terminus",,53.0102528335,-1.1744678052,,,,,,
3390RP02,,"Rise Park Bus Terminus",,53.0103047976,-1.1741836311,,,,,,
3390RP03,,"Rise Park Bus Terminus",,53.0102755566,-1.1738562934,,,,,,
3390RP04,,"Rise Park Bus Terminus",,53.0101749266,-1.1736048411,,,,,,
3390RP05,,"Rise Park Road East",,53.0101374191,-1.1772720154,,,,,,
3390RP06,,"Rise Park Road West",,53.0102973879,-1.1835288018,,,,,,
3390RP07,,"Rise Park Road West",,53.0104158543,-1.1824534506,,,,,,
3390RP08,,"Bestwd Pk Dr E, Rise Pk Rd E",,53.0102803786,-1.1784467411,,,,,,
3390RP09,,"Pine Hill Close",,53.009898304,-1.1713148733,,,,,,
3390RP10,,"Brownlow Dr, Rise Pk Shops",,53.0106749528,-1.1731183488,,,,,,
3390RP12,,"Dunvegan Drive",,53.0127883215,-1.1732419223,,,,,,
3390RP13,,"Rosenheath Avenue",,53.0136947949,-1.1769211733,,,,,,
3390RP14,,"Glensford Gardens",,53.01376417,-1.1791556859,,,,,,
3390RP15,,"Haverhill Crescent",,53.0135560233,-1.1828710974,,,,,,
3390RP16,,"Revelstoke Way",,53.0117497077,-1.1842615474,,,,,,
3390RP17,,"Bestwood Park Drive West",,53.0106696887,-1.1840732432,,,,,,
3390RP19,,"Bestwood Park Drive",,53.0098675912,-1.1850869472,,,,,,
3390S1,,"Nottingham Station S1",,52.9480356851,-1.1475534454,,,,,,
3390S2,,"Nottingham Station S2",,52.9478733632,-1.147482221,,,,,,
3390S5,,"Nottingham Station S5",,52.947739393,-1.1476039172,,,,,,
3390S6,,"Nottingham Station S6",,52.9478385838,-1.1476466166,,,,,,
3390S7,,"Nottingham Station S7",,52.9472414108,-1.1471076918,,,,,,
3390SA01,,"St Ann's, Kildare Road terminus",,52.9704120511,-1.1242561917,,,,,,
3390SA02,,"Brewsters Road",,52.9689602439,-1.1248662451,,,,,,
3390SA03,,"Botany Avenue",,52.9672969637,-1.127282167,,,,,,
3390SA04,,"Ransom Road",,52.9646722732,-1.130997634,,,,,,
3390SA05,,"Luther Close",,52.9635810709,-1.1329847688,,,,,,
3390SA06,,"St Ann's Well Rd, Robin Hd Chase",,52.9613118154,-1.1373922042,,,,,,
3390SA07,,"Hedderley Walk",,52.958904239,-1.1413404251,,,,,,
3390SA08,,"Curzon Street",,52.9570236958,-1.1423452612,,,,,,
3390SA09,,"Curzon Street",,52.9572222956,-1.1424604219,,,,,,
3390SA10,,"Hedderley Walk",,52.9596486482,-1.1411023773,,,,,,
3390SA11,,"St Ann's Well Rd, Robin Hd Chase",,52.9617840851,-1.1368170741,,,,,,
3390SA12,,"Luther Close",,52.9640701003,-1.1322454512,,,,,,
3390SA13,,"Ransom Road",,52.9649585894,-1.1308132283,,,,,,
3390SA14,,"Botany Avenue",,52.9670493365,-1.1278380655,,,,,,
3390SA15,,"Brewsters Road",,52.9679923565,-1.1264938925,,,,,,
3390SA16,,"Gilpet Avenue",,52.9693666709,-1.1263470707,,,,,,
3390SA17,,"Gedney Avenue",,52.9712495714,-1.1269047508,,,,,,
3390SA18,,"Brewsters Road Top",,52.9709796778,-1.1281014584,,,,,,
3390SA19,,"Blundell Close",,52.9687297055,-1.130201557,,,,,,
3390SA20,,"Ransom Road",,52.9681241699,-1.1309879837,,,,,,
3390SA21,,"Lotus Close",,52.9657861073,-1.1333426681,,,,,,
3390SA22,,"Abbotsford Drive",,52.9650116876,-1.1381076841,,,,,,
3390SA23,,"Abbotsford Dr, Robin Hood Chase",,52.9633824115,-1.1415346003,,,,,,
3390SA24,,"Penrhyn Close",,52.9610839292,-1.1431730737,,,,,,
3390SA25,,"Comyn Gardens",,52.9589595982,-1.1427833415,,,,,,
3390SA26,,"Comyn Gardens",,52.9586817145,-1.1428930421,,,,,,
3390SA27,,"Penrhyn Close",,52.961344373,-1.1431381511,,,,,,
3390SA28,,"Abbotsford Dr, Robin Hood Chase",,52.9638478635,-1.1412573912,,,,,,
3390SA29,,"Abbotsford Drive",,52.9653091614,-1.1382208805,,,,,,
3390SA30,,"Lotus Close",,52.9653720117,-1.1344973961,,,,,,
3390SA31,,"Ransom Road",,52.9678192246,-1.1310834366,,,,,,
3390SA32,,"Blundell Close",,52.9691921306,-1.130743216,,,,,,
3390SA33,,"Brewsters Road Top",,52.9710723972,-1.1284867565,,,,,,
3390SA34,,"Gedney Avenue",,52.9710071096,-1.1269394174,,,,,,
3390SA35,,"Gilpet Avenue",,52.9692828234,-1.125946723,,,,,,
3390SA36,,"St Ann's, Kildare Road",,52.9707877991,-1.1240103456,,,,,,
3390SA37,,"Landmere Gardens",,52.9729471499,-1.1242645258,,,,,,
3390SA38,,"The Chestnuts",,52.9747183612,-1.1255243474,,,,,,
3390SA39,,"Boynton Drive",,52.975985785,-1.1267348536,,,,,,
3390SA40,,"Elliott Durham Nature Area",,52.9775890333,-1.1283854653,,,,,,
3390SA42,,"The Wells Rd, Woodboro' Rd",,52.9796816489,-1.1305774443,,,,,,
3390SA43,,"The Wells Rd, Woodboro' Rd",,52.9796801246,-1.1303689608,,,,,,
3390SA44,,"Elliott Durham Nature Area",,52.9773609451,-1.1279283687,,,,,,
3390SA45,,"Boynton Drive",,52.9757484835,-1.1262481832,,,,,,
3390SA46,,"The Chestnuts",,52.9738945237,-1.1247368117,,,,,,
3390SA47,,"St Ann's, Kildare Road",,52.9705349241,-1.1238516591,,,,,,
3390SA57,,"Landmere Gardens",,52.9726747634,-1.123897744,,,,,,
3390SH01,,"Hucknall Road",,52.9719756205,-1.1527114726,,,,,,
3390SH02,,"Tavistock Drive",,52.9732102635,-1.1518831849,,,,,,
3390SH03,,"Church Drive",,52.9757060698,-1.1501663766,,,,,,
3390SH04,,"Bingham Road",,52.9777279266,-1.1488012267,,,,,,
3390SH05,,"Sherwood, Haydn Rd",,52.9806180975,-1.1469273525,,,,,,
3390SH06,,"Sherwood Shops",,52.9826482604,-1.1454723605,,,,,,
3390SH07,,"Magnus Road",,52.9845162952,-1.1439757483,,,,,,
3390SH08,,"Woodthorpe Drive",,52.9877516564,-1.14136448,,,,,,
3390SH09,,"Foster Drive",,52.9898372911,-1.1401313416,,,,,,
3390SH10,,"Rushcliffe Rise",,52.9906900899,-1.1399654323,,,,,,
3390SH103,,"City Hospl, Main Entrance",,52.9915689988,-1.1572593778,,,,,,
3390SH105,,"Day Surgery Unit",,52.9898244385,-1.1609878627,,,,,,
3390SH107,,"Five Ways",,52.9893274214,-1.1479773756,,,,,,
3390SH118,,"Hucknall Rd, City Hospital",,52.9884936571,-1.160939159,,,,,,
3390SH123,,"City Hospital, Purple Car Park",,52.9918387406,-1.1534700311,,,,,,
3390SH124,,"City Hospl, Radiotherapy",,52.9919401677,-1.1550919365,,,,,,
3390SH125,,"Yellow Car Park",,52.9900503357,-1.1510171225,,,,,,
3390SH13,,"Sherwood Shops",,52.9833256885,-1.1446695565,,,,,,
3390SH14,,"Sherwood, Winchester St",,52.9813318095,-1.1461685773,,,,,,
3390SH15,,"Haydn Road",,52.9796052079,-1.1473345365,,,,,,
3390SH16,,"Bingham Road",,52.9771180074,-1.1489919246,,,,,,
3390SH17,,"Church Drive",,52.974729227,-1.1505876229,,,,,,
3390SH18,,"Tavistock Drive",,52.9731548473,-1.1516757871,,,,,,
3390SH19,,"Hucknall Road",,52.971410105,-1.1528267662,,,,,,
3390SH20,,"Valley Rd, Mansfield Rd",,52.9920218972,-1.1413989958,,,,,,
3390SH21,,"Linby Close",,52.9911626325,-1.1444104905,,,,,,
3390SH22,,"Valley Rd, Edwards La",,52.9881211184,-1.150250516,,,,,,
3390SH23,,"Whatton Rise",,52.9877539631,-1.1529689042,,,,,,
3390SH24,,"Valley Rd, Hucknall Rd",,52.9873719402,-1.1561344302,,,,,,
3390SH25,,"Valley Rd, Hucknall Rd",,52.9872799127,-1.1583706907,,,,,,
3390SH26,,"Whatton Rise",,52.9878397345,-1.1536524726,,,,,,
3390SH27,,"Valley Rd, Edwards La",,52.9882669511,-1.1505306939,,,,,,
3390SH28,,"Linby Close",,52.9913515984,-1.1444365528,,,,,,
3390SH29,,"Valley Rd, Mansfield Rd",,52.9923230844,-1.1407821977,,,,,,
3390SH30,,"Sherwood Manor",,52.9840395031,-1.1451767987,,,,,,
3390SH31,,"Perry Road",,52.9854146779,-1.147652157,,,,,,
3390SH32,,"Five Ways",,52.9879150719,-1.1490926178,,,,,,
3390SH33,,"Ribblesdale Road",,52.9914350487,-1.1510644651,,,,,,
3390SH34,,"Edwards La, City Hospital",,52.9930418536,-1.1520013628,,,,,,
3390SH35,,"Arnold Road",,52.9954777919,-1.1532349936,,,,,,
3390SH36,,"Arnold Road",,52.9956745775,-1.1530970511,,,,,,
3390SH37,,"Edwards La, City Hospital",,52.9933379328,-1.1519210719,,,,,,
3390SH38,,"Ribblesdale Road",,52.9909642596,-1.150596967,,,,,,
3390SH39,,"Five Ways",,52.9878950705,-1.1488099741,,,,,,
3390SH40,,"Perry Road",,52.9847941876,-1.1463684492,,,,,,
3390SH41,,"Mansfield Road",,52.9716525965,-1.1540579854,,,,,,
3390SH42,,"Ebury Road",,52.9733672406,-1.1549924714,,,,,,
3390SH43,,"Bernard Street",,52.9760913057,-1.1562945744,,,,,,
3390SH44,,"Teesdale Road",,52.9782170679,-1.1568935923,,,,,,
3390SH45,,"Leonard Avenue",,52.9801896047,-1.1574360716,,,,,,
3390SH46,,"Perry Road",,52.9828735785,-1.1581584046,,,,,,
3390SH47,,"Valley Road",,52.9862448636,-1.1594633218,,,,,,
3390SH48,,"Hucknall Rd, City Hospital",,52.9883410675,-1.1609719088,,,,,,
3390SH49,,"Heathfield Road",,52.9898349713,-1.1663209001,,,,,,
3390SH50,,"Arnold Road",,52.9906843974,-1.169522432,,,,,,
3390SH51,,"Arnold Road",,52.9908911267,-1.1695184676,,,,,,
3390SH52,,"Heathfield Road",,52.9896812326,-1.1649086191,,,,,,
3390SH53,,"Hucknall Rd, City Hospital",,52.9885669287,-1.161131399,,,,,,
3390SH55,,"Valley Road",,52.9863603418,-1.1592674311,,,,,,
3390SH56,,"Perry Road",,52.9826468697,-1.1578798081,,,,,,
3390SH57,,"Leonard Avenue",,52.9813766829,-1.1575023503,,,,,,
3390SH58,,"Teesdale Road",,52.978521506,-1.1567238402,,,,,,
3390SH59,,"Bernard Street",,52.975504218,-1.1559039112,,,,,,
3390SH60,,"Ebury Road",,52.973564135,-1.1548694981,,,,,,
3390SH61,,"Mansfield Road",,52.9714528427,-1.1537789555,,,,,,
3390SH81,,"Sherwood Vale",,52.9809140214,-1.1393403392,,,,,,
3390SH82,,"Cavendish Vale",,52.9808464775,-1.1411885687,,,,,,
3390SH83,,"Sherwood, Mansfield Street",,52.9818080769,-1.1448931509,,,,,,
3390SH84,,"Sherwood, Mansfield Street",,52.9816670402,-1.1440320519,,,,,,
3390SH85,,"Cavendish Vale",,52.9812324714,-1.1423575731,,,,,,
3390SH86,,"Sherwood Vale",,52.9811534681,-1.1388887512,,,,,,
3390SH92,,"Five Ways",,52.9892320716,-1.1484708568,,,,,,
3390SH94,,"Sherwood Shops",,52.9825767829,-1.1455333499,,,,,,
3390SI01,,Silverdale,,52.9202570183,-1.1664230215,,,,,,
3390SI02,,Silverdale,,52.9208040549,-1.1662340354,,,,,,
3390SN01,,"Porchester Road",,52.9618082279,-1.1204847612,,,,,,
3390SN02,,"City College",,52.9593808292,-1.1241068605,,,,,,
3390SN03,,"Randolph Street",,52.9575712808,-1.1286390702,,,,,,
3390SN04,,"Carlton Rd, St. Matthias Rd",,52.9568388815,-1.1305145408,,,,,,
3390SN05,,"St Chads Road",,52.9559297285,-1.1328102839,,,,,,
3390SN06,,"Handel Street",,52.955188166,-1.1346709095,,,,,,
3390SN07,,"Handel Street",,52.9555617698,-1.1341275732,,,,,,
3390SN08,,"Carlton Rd, St. Matthias Rd",,52.9569122019,-1.130706589,,,,,,
3390SN09,,"Randolph Street",,52.9580150154,-1.1278560585,,,,,,
3390SN10,,"City College",,52.9588346275,-1.1256214524,,,,,,
3390SN11,,"Marmion Road",,52.9612147136,-1.1216729171,,,,,,
3390SN14,,"Lower Eldon Street",,52.950078312,-1.1341477517,,,,,,
3390SN15,,"Meadow Lane",,52.9495713903,-1.1275198229,,,,,,
3390SN16,,"Colwick Road, Trent Lane",,52.9501444829,-1.1235492241,,,,,,
3390SN17,,"Lyndhurst Road",,52.9507425009,-1.1217510671,,,,,,
3390SN18,,"Colwick Crossing",,52.951242232,-1.1188236627,,,,,,
3390SN19,,"Colwick Crossing",,52.951130733,-1.118334754,,,,,,
3390SN20,,"Lyndhurst Road",,52.9505119955,-1.1221873667,,,,,,
3390SN21,,"Trent Lane",,52.9496864155,-1.1248235841,,,,,,
3390SN22,,"Meadow Lane",,52.9488354645,-1.130139199,,,,,,
3390SN23,,"Lower Eldon Street",,52.9504875487,-1.1347944699,,,,,,
3390SN24,,"Pennyfoot Street",,52.9521082332,-1.1363845339,,,,,,
3390SN25,,"Eyre Street",,52.9530211219,-1.1370659345,,,,,,
3390SN26,,"Eyre Street",,52.9532304626,-1.1361835675,,,,,,
3390SN27,,"Sneinton Rd, Windmill Lane",,52.9519153428,-1.1321165755,,,,,,
3390SN28,,"Lord Nelson Street",,52.9519214903,-1.1268176323,,,,,,
3390SN29,,"Sandringham Road",,52.9536760715,-1.1233736523,,,,,,
3390SN30,,"Edale Road",,52.9549532273,-1.1210257143,,,,,,
3390SN31,,"Skipton Circus",,52.9565777844,-1.1182537694,,,,,,
3390SN32,,"Sneinton Dale, Cardale Rd",,52.9582244582,-1.1160468516,,,,,,
3390SN33,,"Sneinton Dale, Cardale Rd",,52.9587213735,-1.115173293,,,,,,
3390SN34,,"Skipton Circus",,52.9564600551,-1.1181370764,,,,,,
3390SN35,,"Edale Road",,52.9543215554,-1.1219167429,,,,,,
3390SN36,,"Sandringham Road",,52.952982122,-1.1243551859,,,,,,
3390SN37,,"Lord Nelson Street",,52.9515566895,-1.1273310403,,,,,,
3390SN38,,"Dale Street, Windmill Lane",,52.951279103,-1.1311618414,,,,,,
3390SN39,,"Eyre Street",,52.9527926454,-1.1353140961,,,,,,
3390SN40,,"Lees Hill Street",,52.9489873929,-1.1300170854,,,,,,
3390SN49,,"Pennyfoot Street",,52.9513899093,-1.1377384107,,,,,,
3390SN50,,"Racecourse Road",,52.9486632259,-1.1177449363,,,,,,
3390SN51,,"Virgin Media",,52.9474582949,-1.121341319,,,,,,
3390SN52,,"Daleside Rd, Trent La",,52.9464392672,-1.1245616889,,,,,,
3390SN53,,"Poulton Drive",,52.9461968827,-1.1270519358,,,,,,
3390SN56,,"Poulton Drive",,52.9464008792,-1.1266757695,,,,,,
3390SN57,,"Daleside Rd, Trent La",,52.9466532305,-1.1243192501,,,,,,
3390SN58,,"Virgin Media",,52.9482550119,-1.1196731572,,,,,,
3390SN60,,"Southwell Road",,52.9532612935,-1.1379542419,,,,,,
3390SN61,,"Southwell Road",,52.9534320696,-1.1379508471,,,,,,
3390SN62,,"Pennyfoot Street",,52.9512833709,-1.1366837579,,,,,,
3390SN65,,"Lace Way",,52.9496207406,-1.1379819538,,,,,,
3390SN66,,"City Link (east)",,52.9495482248,-1.1354234325,,,,,,
3390SN67,,"Lady Bay Retail Park",,52.9472831556,-1.1317627831,,,,,,
3390SN68,,"Lady Bay Retail Park",,52.9472952947,-1.1321941394,,,,,,
3390ST01,,"Strelley Road, ASDA",,52.9736971964,-1.2190354461,,,,,,
3390ST02,,"Helston Drive",,52.9735851037,-1.2225072267,,,,,,
3390ST03,,"St Michaels Ave",,52.9727860414,-1.2281802936,,,,,,
3390ST06,,"Helston Drive",,52.9737419272,-1.2217449349,,,,,,
3390ST07,,"Strelley Road, ASDA",,52.973889168,-1.2181533712,,,,,,
3390ST08,,"Moor Road, The Rose",,52.9733732799,-1.2272465557,,,,,,
3390ST09,,"Morris Road",,52.9751137359,-1.2294791318,,,,,,
3390ST10,,"Strelley, Flamsteed Rd",,52.9763764653,-1.2287418315,,,,,,
3390ST11,,"Strelley, Flamsteed Rd",,52.9761968908,-1.228774813,,,,,,
3390ST12,,"Morris Road",,52.9753480129,-1.2295643196,,,,,,
3390ST13,,"Moor Road, The Rose",,52.9733611944,-1.2267702402,,,,,,
3390ST24,,"Moor Road",,52.9732270462,-1.2268768747,,,,,,
3390SW01,,"Hoewood Rd, Bacton Ave",,53.0070209097,-1.2014297545,,,,,,
3390SW02,,"Bardney Drive",,53.0055867688,-1.2047348094,,,,,,
3390SW03,,"Catherine Close",,53.0035469451,-1.2075440574,,,,,,
3390SW04,,Aldi,,53.0039124561,-1.2097875865,,,,,,
3390SW05,,"Camberley Road",,53.0050246452,-1.2121218781,,,,,,
3390SW06,,"Stoney Houghton Gardens",,53.0050298489,-1.2142677439,,,,,,
3390SW07,,"Corben Gardens",,53.0036041045,-1.2161712771,,,,,,
3390SW08,,"Rowan Gardens (out)",,53.0025696999,-1.217441746,,,,,,
3390SW09,,"Snape Wood, Rowan Gdns (in)",,53.0031062538,-1.2170147948,,,,,,
3390SW10,,"Stoney Houghton Gdns.",,53.0048969922,-1.2145682048,,,,,,
3390SW11,,"Sellers Wd Dr, Camberley Rd",,53.0051869282,-1.212193437,,,,,,
3390SW12,,Aldi,,53.004055972,-1.2097402601,,,,,,
3390SW13,,"Catherine Close",,53.0036993491,-1.2074816591,,,,,,
3390SW14,,"Bardney Drive",,53.0058282571,-1.204551539,,,,,,
3390SW15,,"Hoewood Rd, Bacton Ave",,53.0071984741,-1.2010986066,,,,,,
3390SW18,,"Dabell Avenue",,53.0069091193,-1.2129817638,,,,,,
3390SW19,,"Coop Distribution Centre",,53.0079484893,-1.2138272673,,,,,,
3390SW20,,"Widdowson Close",,53.0080277293,-1.2162998147,,,,,,
3390SW21,,"Centurion Business Centre",,53.0077359359,-1.2225198286,,,,,,
3390SW22,,"Blenheim Industrial Estate",,53.0077860366,-1.2233088111,,,,,,
3390SW23,,"Centurion Business Centre",,53.0078354133,-1.2212363439,,,,,,
3390SW24,,Micro-Mesh,,53.007679474,-1.2180200131,,,,,,
3390SW25,,"Widdowson Close",,53.0082708064,-1.2163550276,,,,,,
3390SW26,,"Dabell Avenue",,53.0065769463,-1.213047416,,,,,,
3390SW27,,"Sellers Wood Drive",,53.0027018024,-1.2129390445,,,,,,
3390SW28,,Subway,,53.0003679633,-1.2148142851,,,,,,
3390SW30,,Subway,,53.0011744527,-1.2144271283,,,,,,
3390SW31,,"Sellers Wood Drive",,53.0032308309,-1.2127357012,,,,,,
3390SW39,,"Dabell Avenue",,53.0072833681,-1.2165666487,,,,,,
3390T1,,"City, Victoria Centre T1",,52.956015722,-1.1484385705,,,,,,
3390T2,,"City, Victoria Centre T2",,52.9561778301,-1.1484800442,,,,,,
3390T3,,"City, Victoria Centre T3",,52.9567903092,-1.1486466477,,,,,,
3390T4,,"City, Victoria Centre T4",,52.9571145252,-1.1487295983,,,,,,
3390T5,,"Victoria Ctr, Rose of England",,52.9583139024,-1.1492568505,,,,,,
3390T6,,"Victoria Ctr, Rose of England",,52.9586023779,-1.1493702828,,,,,,
3390T7,,"City, Cornerhouse T7",,52.9561804497,-1.1501025414,,,,,,
3390TV01,,"Duke Of St Albans",,53.0096697952,-1.1592468869,,,,,,
3390TV07,,"Old Farm Road",,53.0089106323,-1.1689044523,,,,,,
3390TV08,,"Old Farm Rd, Knights Close",,53.0052339633,-1.1676189121,,,,,,
3390TV09,,"Stacey Avenue",,53.0027535041,-1.1715708722,,,,,,
3390TV10,,"Ridgeway, Tesco",,53.0037240719,-1.1767084214,,,,,,
3390TV13,,"Ridgeway, Tesco",,53.0035789194,-1.1765174556,,,,,,
3390TV14,,"Flaxton Way",,53.0025081827,-1.1737810152,,,,,,
3390TV15,,"Stacey Avenue",,53.0030239354,-1.1703884501,,,,,,
3390TV16,,"Bradwell Drive West",,53.0043202931,-1.1680835515,,,,,,
3390TV17,,"Old Farm Rd, Knights Close",,53.0057849542,-1.1679957889,,,,,,
3390TV18,,"Old Farm Road",,53.0080519274,-1.1695170858,,,,,,
3390TV19,,"Iona Gardens",,53.0106136195,-1.1669043564,,,,,,
3390TV26,,"Bewcastle Rd, Duke Of St Albans",,53.0097202477,-1.1587540689,,,,,,
3390TV27,,"Edern Close",,53.0009573657,-1.1666729654,,,,,,
3390TV28,,"Parkview Rd, Ridge Way",,53.0025590414,-1.1668954609,,,,,,
3390TV29,,"Top Valley Social Club",,53.0043129969,-1.1644773341,,,,,,
3390TV30,,"Bradwell Drive East",,53.0051298203,-1.1617492955,,,,,,
3390TV31,,"Verder Grove",,53.0072857934,-1.1756868587,,,,,,
3390TV32,,"Parkvale Academy",,53.008388735,-1.1727000152,,,,,,
3390TV33,,"Old Farm Road",,53.0087776383,-1.1704570055,,,,,,
3390TV34,,"Crossfield Drive",,53.0078305869,-1.159759529,,,,,,
3390TV35,,"Parkvale Academy",,53.0083939912,-1.1721633814,,,,,,
3390TV36,,"Verder Grove",,53.0052334755,-1.1765902959,,,,,,
3390TV38,,"Ridgeway, Crossfield Dr",,53.0071918995,-1.159697412,,,,,,
3390TV39,,"Bradwell Drive East",,53.0049079498,-1.1621559602,,,,,,
3390TV40,,"Top Valley Social Club",,53.00409164,-1.1649584783,,,,,,
3390TV41,,"Parkview Rd, Ridge Way",,53.0030335378,-1.1666180952,,,,,,
3390TV42,,"Edern Close",,52.9999917638,-1.1661402223,,,,,,
3390TV43,,"Kyle View",,53.0093367492,-1.1630091752,,,,,,
3390TV44,,"Muirfield Road",,53.0095437108,-1.1668802404,,,,,,
3390TV45,,"Muirfield Road",,53.0096542922,-1.165983863,,,,,,
3390TV46,,"Kyle View",,53.0090144563,-1.1606456838,,,,,,
3390TV47,,"Bradwell Drive West",,53.0035563995,-1.1681131349,,,,,,
3390TV49,,"Stevenholme Cres",,52.9987831643,-1.1655674848,,,,,,
3390U2,,"City, Upper Parliament St U2",,52.9546383716,-1.1531991245,,,,,,
3390U3,,"City, Upper Parliament St U3",,52.9545077865,-1.1537970821,,,,,,
3390U4,,"City, Upper Parliament St U4",,52.9544302809,-1.1542749198,,,,,,
3390U5,,"City, Upper Parliament St U5",,52.9548999575,-1.1520627315,,,,,,
3390UN05,,"Dunkirk, Lace Street",,52.9397982433,-1.1829663247,,,,,,
3390UN11,,"Derby Road, Charles Avenue",,52.9396166869,-1.2120006876,,,,,,
3390UN12,,"Wollaton Park Gates",,52.942118352,-1.2042915964,,,,,,
3390UN13,,"Lenton Hall",,52.9437595279,-1.1996928889,,,,,,
3390UN14,,"Uni North Entrance",,52.9444973552,-1.1918217345,,,,,,
3390UN15,,"Uni North Entrance",,52.9442912299,-1.1919148645,,,,,,
3390UN16,,"Lenton Hall",,52.943306427,-1.2004899564,,,,,,
3390UN17,,"Wollaton Park Gates",,52.941862467,-1.2050105678,,,,,,
3390UN18,,"Charles Avenue",,52.9392013276,-1.2130795822,,,,,,
3390UN19,,"Derby Road",,52.9382856036,-1.2159828243,,,,,,
3390UN20,,"Winster Close",,52.937010578,-1.2148452903,,,,,,
3390UN21,,"Woodside Rd, Hathern Green",,52.9360274516,-1.2116343822,,,,,,
3390UN22,,"Manton Crescent",,52.9352672646,-1.2081666171,,,,,,
3390UN23,,"Uni West Gate",,52.9345350958,-1.2062160439,,,,,,
3390UN24,,"Uni West Gate",,52.934164783,-1.2059550106,,,,,,
3390UN25,,"Manton Crescent",,52.9350889828,-1.2083930473,,,,,,
3390UN26,,"Woodside Rd, Hathern Green",,52.935720859,-1.2114911654,,,,,,
3390UN27,,"Derby Road",,52.9378462503,-1.2161544363,,,,,,
3390UN28,,"West Entrance",,52.9347294164,-1.2030136443,,,,,,
3390UN31,,"Cut Through La, George Green Liby",,52.9410938014,-1.1923315534,,,,,,
3390UN32,,"Cut Through Lane, Library Rd",,52.9388831536,-1.1950957052,,,,,,
3390UN33,,"West Entrance",,52.9349055924,-1.2024747859,,,,,,
3390UN34,,"Arts Centre",,52.939029131,-1.1887988262,,,,,,
3390UN36,,"Univ Campus, Portland Hill",,52.9394419611,-1.1939842204,,,,,,
3390UN37,,"University Park Campus, East Dr",,52.9387739954,-1.1922556984,,,,,,
3390UN43,,"Lenton and Wortley Hall",,52.9425921624,-1.1972144071,,,,,,
3390UN44,,"Rutland Hall",,52.9402378566,-1.2053825817,,,,,,
3390UN45,,History,,52.9359244736,-1.2029321805,,,,,,
3390UN46,,"Derby Hall",,52.942025193,-1.20246296,,,,,,
3390UN47,,"Beeston Lane, History",,52.9363277379,-1.2040853273,,,,,,
3390UN48,,"Rutland Hall",,52.9398409749,-1.2051815289,,,,,,
3390UN49,,"Derby Hall",,52.9421418424,-1.2024310539,,,,,,
3390UN50,,"Lenton and Wortley Hall",,52.9423450469,-1.1992279105,,,,,,
3390UN51,,"Greenfield Street",,52.9384688765,-1.185744093,,,,,,
3390V1,,"City, Victoria Centre V1",,52.9552528166,-1.1473520296,,,,,,
3390V2,,"City, Victoria Centre V2",,52.9552592427,-1.1469946523,,,,,,
3390V3,,"City, Victoria Centre V3",,52.9553083651,-1.1463238398,,,,,,
3390V4,,"City, Victoria Centre V4",,52.9553045167,-1.1457880386,,,,,,
3390V5,,"City, Victoria Centre V5",,52.9552015814,-1.1452244198,,,,,,
3390W1,,"City, Victoria Centre W1",,52.9551439047,-1.1459549422,,,,,,
3390W2,,"City, Victoria Centre W2",,52.955164019,-1.1462522544,,,,,,
3390W3,,"City, Victoria Centre W3",,52.955114363,-1.1468486483,,,,,,
3390W4,,"City, Victoria Centre W4",,52.9550904947,-1.1472807944,,,,,,
3390WI06,,"Wilford Green",,52.9255526814,-1.1588837113,,,,,,
3390WI07,,"Clifton Bridge South",,52.9213020634,-1.166745054,,,,,,
3390WI08,,"Clifton Bridge South",,52.921634736,-1.166753543,,,,,,
3390WI09,,"Wilford Green",,52.9258085626,-1.1594737666,,,,,,
3390WI22,,"Brierfield Avenue",,52.9158462471,-1.1592055813,,,,,,
3390WI23,,"Brierfield Avenue",,52.9162238619,-1.1592131418,,,,,,
3390WI24,,"Launceston Crescent",,52.9182058147,-1.1598142916,,,,,,
3390WI25,,"Launceston Crescent",,52.9186204338,-1.1599698703,,,,,,
3390WI26,,"St Austell Drive",,52.9205357867,-1.1600518008,,,,,,
3390WI27,,"St Austell Drive",,52.9206784436,-1.1598854316,,,,,,
3390WI28,,"Twelve Houses",,52.9229362979,-1.1600946032,,,,,,
3390WI29,,"Twelve Houses",,52.9230611884,-1.1599583174,,,,,,
3390WI30,,"Ruddington Lane Top",,52.924563498,-1.1601077453,,,,,,
3390WI31,,"Ruddington Lane Top",,52.9247174553,-1.1602683911,,,,,,
3390WI34,,"Harvester PH",,52.9257788522,-1.161631264,,,,,,
3390WI35,,"Harvester PH",,52.9255714915,-1.1615460172,,,,,,
3390WI36,,"Wilford Lane Tram Stop",,52.9255811916,-1.1552982211,,,,,,
3390WM01,,"Radford Road",,52.9781094818,-1.1787739211,,,,,,
3390WM02,,"Newport Drive",,52.975265719,-1.1822381535,,,,,,
3390WM03,,"Western Blvd, Nuthall Rd",,52.9733397903,-1.1845380259,,,,,,
3390WM04,,"Newlyn Drive",,52.9704046494,-1.1878096278,,,,,,
3390WM05,,"Bluecoat School",,52.9685301051,-1.1897506718,,,,,,
3390WM06,,"Western Blvd, Bluecoat Sch",,52.9686046486,-1.1901364181,,,,,,
3390WM07,,"Newlyn Drive",,52.9703986093,-1.1882415687,,,,,,
3390WM08,,"Western Blvd, Nuthall Rd",,52.9733526572,-1.1851036658,,,,,,
3390WM09,,"Newport Drive",,52.9758395355,-1.1820188292,,,,,,
3390WM10,,"Radford Road",,52.9782732242,-1.1790537907,,,,,,
3390WM11,,"Western Boulevard",,52.9736413865,-1.1865725175,,,,,,
3390WM12,,"Nuthall Rd, Basford Rd",,52.9761038981,-1.1891175977,,,,,,
3390WM13,,"Nuthall Rd, Bar Lane",,52.9771339431,-1.1898876459,,,,,,
3390WM14,,"Basford Road",,52.9755227549,-1.1882647154,,,,,,
3390WM15,,"Western Boulevard",,52.9736665178,-1.1863039944,,,,,,
3390WM16,,"Nuthall Rd, The Whitemoor",,52.9705791582,-1.184411283,,,,,,
3390WM17,,"Aspley Lane",,52.9679701002,-1.1841030243,,,,,,
3390WM18,,"Aspley Lane",,52.9679537577,-1.1843415684,,,,,,
3390WM19,,"The Whitemoor",,52.970491113,-1.1846809716,,,,,,
3390WO01,,"Wollaton Rd, Ringwood Cres",,52.9548259579,-1.1957524672,,,,,,
3390WO02,,"Eton Grove",,52.954668996,-1.1991343186,,,,,,
3390WO03,,"Brendon Road",,52.9549788562,-1.2064670491,,,,,,
3390WO04,,"Wollaton Hall",,52.9540533305,-1.2119318866,,,,,,
3390WO05,,"Rectory Gardens",,52.9522703231,-1.2169058943,,,,,,
3390WO06,,"Wollaton, Admiral Rodney",,52.9526429597,-1.221632431,,,,,,
3390WO07,,Parkside,,52.9503497992,-1.2256326477,,,,,,
3390WO08,,"Bramcote Drive",,52.9492349624,-1.2269920492,,,,,,
3390WO09,,"Arleston Drive",,52.9496312766,-1.2312714163,,,,,,
3390WO10,,"Humberston Road",,52.950045701,-1.235595192,,,,,,
3390WO109,,Wharfedale,,52.9493677518,-1.2406228257,,,,,,
3390WO11,,"Grangewood Road",,52.9509919438,-1.238763669,,,,,,
3390WO12,,"Wollaton Va, Rosedale Dr",,52.9520340329,-1.2414691963,,,,,,
3390WO13,,"Rosedale Dr, Wollaton Vale",,52.9519999777,-1.2417674767,,,,,,
3390WO14,,"Wollaton Va, Rosedale Dr",,52.9521682899,-1.2413775423,,,,,,
3390WO15,,"Wollaton Va, Grangewood Rd",,52.9509329604,-1.2379758588,,,,,,
3390WO16,,"Humberston Road",,52.9501055573,-1.235117862,,,,,,
3390WO17,,"Arleston Drive",,52.949307243,-1.2298185934,,,,,,
3390WO18,,Parkside,,52.9503157837,-1.2259309286,,,,,,
3390WO19,,"Wollaton, Admiral Rodney",,52.9528580968,-1.2215392624,,,,,,
3390WO20,,"Rectory Gardens",,52.952379164,-1.2170527729,,,,,,
3390WO21,,"Wollaton Hall",,52.9541884522,-1.2119740861,,,,,,
3390WO22,,"Old Coach Road",,52.9547591652,-1.2099244403,,,,,,
3390WO23,,"Brendon Road",,52.9551072754,-1.2068517179,,,,,,
3390WO24,,"Eton Grove",,52.9548162814,-1.1983129097,,,,,,
3390WO25,,"Ringwood Crescent",,52.9550112892,-1.1952429291,,,,,,
3390WO26,,"Middleton Blvd, Jubilee Campus",,52.9542378022,-1.1925333184,,,,,,
3390WO27,,"Hawton Crescent",,52.9511604333,-1.190774767,,,,,,
3390WO28,,"Scalford Drive",,52.9490741247,-1.19066486,,,,,,
3390WO29,,"Wollaton Hall Dr",,52.9469869035,-1.1904210364,,,,,,
3390WO30,,"Oundle Drive",,52.9452830676,-1.191033233,,,,,,
3390WO31,,"Wollaton Hall Dr",,52.9469278343,-1.1909876757,,,,,,
3390WO32,,"Scalford Drive",,52.9500123559,-1.1911533948,,,,,,
3390WO33,,"Jubilee Campus",,52.9543587932,-1.1931413545,,,,,,
3390WO34,,"The Crown",,52.9562793544,-1.1913490981,,,,,,
3390WO35,,"The Crown",,52.9560063628,-1.1908629622,,,,,,
3390WO36,,"Wollaton Rd, Jubilee Campus",,52.9553573428,-1.1892823304,,,,,,
3390WO37,,"Marchwood Close",,52.9551505463,-1.1905961094,,,,,,
3390WO38,,Spices,,52.9533348333,-1.24387265,,,,,,
3390WO39,,Spices,,52.9536419548,-1.244105452,,,,,,
3390WO40,,"Bramcote Lane",,52.9479810317,-1.2276990084,,,,,,
3390WO41,,"Sheraton Drive",,52.9458899911,-1.2254741493,,,,,,
3390WO42,,"Wollaton Rise",,52.9443009468,-1.2244161627,,,,,,
3390WO43,,"Parkside Rise",,52.94224901,-1.2226820174,,,,,,
3390WO44,,Parkside,,52.9410583835,-1.2193254747,,,,,,
3390WO45,,"The Priory",,52.9395040415,-1.2167196863,,,,,,
3390WO46,,"Wollaton Vale, The Priory",,52.9395157741,-1.2171361139,,,,,,
3390WO47,,Parkside,,52.9409687925,-1.2193717282,,,,,,
3390WO48,,"Parkside Rise",,52.9423956454,-1.223110938,,,,,,
3390WO49,,"Wollaton Rise",,52.9446987668,-1.2247662122,,,,,,
3390WO50,,"Sheraton Drive",,52.9465978698,-1.2265032779,,,,,,
3390WO51,,"Bramcote Lane",,52.9480369918,-1.2280105528,,,,,,
3390WO65,,"Coventry Lane",,52.9541343281,-1.2451983575,,,,,,
3390WO66,,"Hemlock Stone",,52.947964399,-1.2292917713,,,,,,
3390WO67,,"Bramcote Lane Shops",,52.9465229139,-1.2315795034,,,,,,
3390WO71,,"Grangewood Road",,52.947737173,-1.2414848078,,,,,,
3390WO71A,,"Grangewood Road",,52.9476826726,-1.2413964643,,,,,,
3390WO72,,"Grangewood Court",,52.9504705187,-1.2387579371,,,,,,
3390WO73,,Wharfedale,,52.9491715264,-1.2408643935,,,,,,
3390WO76,,"Bramcote Lane Shops",,52.9464622064,-1.2319228728,,,,,,
3390WO77,,"Hemlock Stone",,52.9482151102,-1.2291384871,,,,,,
3390WO78,,"Middleton Blvd, Hawton Cres",,52.9527762302,-1.1917567664,,,,,,
3390Y2,,Cathedral,,52.9549572912,-1.1575989576,,,,,,
3390Y3,,Cathedral,,52.9550493879,-1.1579097612,,,,,,
3390Y4,,Cathedral,,52.9551048984,-1.158131964,,,,,,
3390Y5,,"Wollaton Street",,52.9556973859,-1.1580162617,,,,,,
3390Y6,,"Talbot Street",,52.9560827492,-1.1553144622,,,,,,
3390Y7,,"Tollhouse Hill",,52.9548450129,-1.1557107055,,,,,,
3390Y9,,"Clarendon Street",,52.9560979564,-1.1574577114,,,,,,
